{
    "directed": false, 
    "graph": {}, 
    "nodes": [
        {
            "group": 4, 
            "name": "zen_mcclintock", 
            "istrain": true, 
            "lon": 2.342970179000291, 
            "lat": 48.88347583872355, 
            "id": 1
        }, 
        {
            "group": 4, 
            "name": "eager_euclid", 
            "istrain": true, 
            "lon": 2.323211826347606, 
            "lat": 48.86614348017627, 
            "id": 2
        }, 
        {
            "group": 4, 
            "name": "distracted_nobel", 
            "istrain": true, 
            "lon": 2.3305018737100833, 
            "lat": 48.87038951284869, 
            "id": 3
        }, 
        {
            "group": 4, 
            "name": "hopeful_varahamihira", 
            "istrain": true, 
            "lon": 2.3380948077134027, 
            "lat": 48.86391026895233, 
            "id": 4
        }, 
        {
            "group": 4, 
            "name": "xenodochial_colden", 
            "istrain": false, 
            "lon": 2.324187839378599, 
            "lat": 48.87014501134458, 
            "id": 5
        }, 
        {
            "group": 4, 
            "name": "sad_wright", 
            "istrain": false, 
            "lon": 2.3128188561387426, 
            "lat": 48.871196602646556, 
            "id": 6
        }, 
        {
            "group": 4, 
            "name": "clever_khorana", 
            "istrain": true, 
            "lon": 2.3272849209474327, 
            "lat": 48.85111581932966, 
            "id": 7
        }, 
        {
            "group": 4, 
            "name": "fervent_feynman", 
            "istrain": false, 
            "lon": 2.3353735865714653, 
            "lat": 48.86448222171877, 
            "id": 8
        }, 
        {
            "group": 4, 
            "name": "focused_bassi", 
            "istrain": true, 
            "lon": 2.329873499298137, 
            "lat": 48.86548568044354, 
            "id": 9
        }, 
        {
            "group": 4, 
            "name": "nifty_ride", 
            "istrain": false, 
            "lon": 2.339368705248309, 
            "lat": 48.882233383738075, 
            "id": 10
        }, 
        {
            "group": 4, 
            "name": "fervent_brahmagupta", 
            "istrain": false, 
            "lon": 2.3307179931911346, 
            "lat": 48.86266004974857, 
            "id": 13
        }, 
        {
            "group": 4, 
            "name": "stoic_ride", 
            "istrain": false, 
            "lon": 2.3404781593274584, 
            "lat": 48.84841543731738, 
            "id": 14
        }, 
        {
            "group": 4, 
            "name": "keen_goldwasser", 
            "istrain": true, 
            "lon": 2.3163214134617762, 
            "lat": 48.859820685797516, 
            "id": 16
        }, 
        {
            "group": 4, 
            "name": "affectionate_stallman", 
            "istrain": true, 
            "lon": 2.329904260836761, 
            "lat": 48.87962268178282, 
            "id": 17
        }, 
        {
            "group": 4, 
            "name": "zealous_nightingale", 
            "istrain": false, 
            "lon": 2.3230499219827534, 
            "lat": 48.8479797082256, 
            "id": 19
        }, 
        {
            "group": 4, 
            "name": "gifted_ptolemy", 
            "istrain": true, 
            "lon": 2.327253099743572, 
            "lat": 48.85313808115994, 
            "id": 20
        }, 
        {
            "group": 4, 
            "name": "youthful_swartz", 
            "istrain": false, 
            "lon": 2.3341404655018394, 
            "lat": 48.84215162916509, 
            "id": 21
        }, 
        {
            "group": 4, 
            "name": "angry_carson", 
            "istrain": false, 
            "lon": 2.3264464394341076, 
            "lat": 48.84840042914299, 
            "id": 22
        }, 
        {
            "group": 4, 
            "name": "dreamy_hypatia", 
            "istrain": true, 
            "lon": 2.330683617565711, 
            "lat": 48.85539225637506, 
            "id": 23
        }, 
        {
            "group": 4, 
            "name": "condescending_perlman", 
            "istrain": false, 
            "lon": 2.3279659013891387, 
            "lat": 48.88199289413036, 
            "id": 24
        }, 
        {
            "group": 4, 
            "name": "xenodochial_tesla", 
            "istrain": true, 
            "lon": 2.3308955977323365, 
            "lat": 48.85399665900274, 
            "id": 25
        }, 
        {
            "group": 4, 
            "name": "trusting_chandrasekhar", 
            "istrain": true, 
            "lon": 2.31460706304867, 
            "lat": 48.860428455776976, 
            "id": 26
        }, 
        {
            "group": 4, 
            "name": "suspicious_perlman", 
            "istrain": false, 
            "lon": 2.3369016647623835, 
            "lat": 48.865172738319686, 
            "id": 27
        }, 
        {
            "group": 4, 
            "name": "youthful_elion", 
            "istrain": false, 
            "lon": 2.328172619058514, 
            "lat": 48.876396015312395, 
            "id": 28
        }, 
        {
            "group": 4, 
            "name": "happy_cori", 
            "istrain": false, 
            "lon": 2.338342760092977, 
            "lat": 48.86729510456254, 
            "id": 29
        }, 
        {
            "group": 4, 
            "name": "upbeat_mirzakhani", 
            "istrain": true, 
            "lon": 2.329856029581165, 
            "lat": 48.85458494786542, 
            "id": 30
        }, 
        {
            "group": 4, 
            "name": "stoic_babbage", 
            "istrain": true, 
            "lon": 2.31904498287318, 
            "lat": 48.86611146667984, 
            "id": 31
        }, 
        {
            "group": 4, 
            "name": "elated_clarke", 
            "istrain": false, 
            "lon": 2.333093299309964, 
            "lat": 48.865148569171104, 
            "id": 32
        }, 
        {
            "group": 4, 
            "name": "optimistic_yalow", 
            "istrain": true, 
            "lon": 2.336606188359978, 
            "lat": 48.87874873021729, 
            "id": 33
        }, 
        {
            "group": 4, 
            "name": "affectionate_cori", 
            "istrain": true, 
            "lon": 2.3269419499716877, 
            "lat": 48.88551004761546, 
            "id": 34
        }, 
        {
            "group": 4, 
            "name": "upbeat_brown", 
            "istrain": false, 
            "lon": 2.32855307263677, 
            "lat": 48.87778304936971, 
            "id": 35
        }, 
        {
            "group": 4, 
            "name": "sharp_cori", 
            "istrain": false, 
            "lon": 2.3268652905197666, 
            "lat": 48.84420592717621, 
            "id": 36
        }, 
        {
            "group": 4, 
            "name": "zealous_banach", 
            "istrain": true, 
            "lon": 2.3339505798611384, 
            "lat": 48.85998207718209, 
            "id": 38
        }, 
        {
            "group": 4, 
            "name": "priceless_bassi", 
            "istrain": false, 
            "lon": 2.330730241440602, 
            "lat": 48.87735593374453, 
            "id": 39
        }, 
        {
            "group": 4, 
            "name": "inspiring_spence", 
            "istrain": true, 
            "lon": 2.3151812295817678, 
            "lat": 48.854228080020214, 
            "id": 40
        }, 
        {
            "group": 4, 
            "name": "inspiring_ardinghelli", 
            "istrain": true, 
            "lon": 2.344013345466478, 
            "lat": 48.86817851352874, 
            "id": 41
        }, 
        {
            "group": 4, 
            "name": "naughty_jennings", 
            "istrain": false, 
            "lon": 2.3318381535111175, 
            "lat": 48.845001070856384, 
            "id": 42
        }, 
        {
            "group": 4, 
            "name": "serene_edison", 
            "istrain": true, 
            "lon": 2.3329311273910007, 
            "lat": 48.88082825451855, 
            "id": 44
        }, 
        {
            "group": 4, 
            "name": "xenodochial_haibt", 
            "istrain": true, 
            "lon": 2.329197024678025, 
            "lat": 48.86082919305508, 
            "id": 45
        }, 
        {
            "group": 4, 
            "name": "condescending_sinoussi", 
            "istrain": false, 
            "lon": 2.3089523588234053, 
            "lat": 48.860488047722654, 
            "id": 46
        }, 
        {
            "group": 4, 
            "name": "clever_nightingale", 
            "istrain": false, 
            "lon": 2.3318857108267728, 
            "lat": 48.867327757233234, 
            "id": 47
        }, 
        {
            "group": 4, 
            "name": "distracted_minsky", 
            "istrain": true, 
            "lon": 2.3334914209066384, 
            "lat": 48.86826348007778, 
            "id": 48
        }, 
        {
            "group": 4, 
            "name": "romantic_wescoff", 
            "istrain": true, 
            "lon": 2.320362707646266, 
            "lat": 48.84866515324548, 
            "id": 49
        }, 
        {
            "group": 4, 
            "name": "hungry_beaver", 
            "istrain": true, 
            "lon": 2.3414993943743534, 
            "lat": 48.854168216523234, 
            "id": 50
        }, 
        {
            "group": 4, 
            "name": "musing_wing", 
            "istrain": false, 
            "lon": 2.3360384738033373, 
            "lat": 48.87275661926843, 
            "id": 51
        }, 
        {
            "group": 4, 
            "name": "peaceful_hamilton", 
            "istrain": false, 
            "lon": 2.329062656010151, 
            "lat": 48.871564058319535, 
            "id": 52
        }, 
        {
            "group": 4, 
            "name": "friendly_tesla", 
            "istrain": false, 
            "lon": 2.308895420447585, 
            "lat": 48.86679831391592, 
            "id": 53
        }, 
        {
            "group": 4, 
            "name": "pedantic_edison", 
            "istrain": true, 
            "lon": 2.3414425236293024, 
            "lat": 48.86562551413335, 
            "id": 54
        }, 
        {
            "group": 4, 
            "name": "zealous_feynman", 
            "istrain": false, 
            "lon": 2.3529938473110823, 
            "lat": 48.867689636395845, 
            "id": 55
        }, 
        {
            "group": 4, 
            "name": "competent_mirzakhani", 
            "istrain": false, 
            "lon": 2.3389046780128924, 
            "lat": 48.857716030672215, 
            "id": 56
        }, 
        {
            "group": 4, 
            "name": "elastic_brown", 
            "istrain": true, 
            "lon": 2.3460130382026745, 
            "lat": 48.87405382256429, 
            "id": 57
        }, 
        {
            "group": 4, 
            "name": "romantic_bartik", 
            "istrain": false, 
            "lon": 2.3341412517037488, 
            "lat": 48.85640605596965, 
            "id": 58
        }, 
        {
            "group": 4, 
            "name": "priceless_lamarr", 
            "istrain": true, 
            "lon": 2.33178061521355, 
            "lat": 48.868474824925215, 
            "id": 59
        }, 
        {
            "group": 4, 
            "name": "inspiring_kilby", 
            "istrain": false, 
            "lon": 2.3244531331636598, 
            "lat": 48.86802783776886, 
            "id": 60
        }, 
        {
            "group": 4, 
            "name": "hungry_babbage", 
            "istrain": true, 
            "lon": 2.3304952835328, 
            "lat": 48.863157907116396, 
            "id": 61
        }, 
        {
            "group": 4, 
            "name": "boring_meitner", 
            "istrain": false, 
            "lon": 2.3284706878697747, 
            "lat": 48.85348939639812, 
            "id": 62
        }, 
        {
            "group": 4, 
            "name": "competent_pare", 
            "istrain": true, 
            "lon": 2.333341290108159, 
            "lat": 48.8718181989603, 
            "id": 63
        }, 
        {
            "group": 4, 
            "name": "pedantic_cori", 
            "istrain": false, 
            "lon": 2.351667573855105, 
            "lat": 48.855907889699125, 
            "id": 64
        }, 
        {
            "group": 4, 
            "name": "mystifying_heyrovsky", 
            "istrain": false, 
            "lon": 2.316346246714045, 
            "lat": 48.868804203526274, 
            "id": 65
        }, 
        {
            "group": 4, 
            "name": "friendly_tesla", 
            "istrain": true, 
            "lon": 2.3257272362809687, 
            "lat": 48.8645131514833, 
            "id": 66
        }, 
        {
            "group": 4, 
            "name": "keen_poitras", 
            "istrain": false, 
            "lon": 2.3258375240748377, 
            "lat": 48.85242673748154, 
            "id": 67
        }, 
        {
            "group": 4, 
            "name": "dazzling_galileo", 
            "istrain": false, 
            "lon": 2.340328140026422, 
            "lat": 48.85432128797895, 
            "id": 68
        }, 
        {
            "group": 4, 
            "name": "wonderful_sinoussi", 
            "istrain": true, 
            "lon": 2.3257445072941967, 
            "lat": 48.88230627798416, 
            "id": 69
        }, 
        {
            "group": 4, 
            "name": "hungry_knuth", 
            "istrain": true, 
            "lon": 2.323557065148752, 
            "lat": 48.84997150103699, 
            "id": 70
        }, 
        {
            "group": 4, 
            "name": "friendly_ride", 
            "istrain": true, 
            "lon": 2.329752997498169, 
            "lat": 48.87729225967285, 
            "id": 71
        }, 
        {
            "group": 4, 
            "name": "competent_euclid", 
            "istrain": true, 
            "lon": 2.3272047291014766, 
            "lat": 48.864743080593605, 
            "id": 72
        }, 
        {
            "group": 4, 
            "name": "relaxed_payne", 
            "istrain": false, 
            "lon": 2.34766347344379, 
            "lat": 48.85385216255544, 
            "id": 73
        }, 
        {
            "group": 4, 
            "name": "quirky_mayer", 
            "istrain": true, 
            "lon": 2.3276516065118535, 
            "lat": 48.88150452178626, 
            "id": 75
        }, 
        {
            "group": 4, 
            "name": "musing_hopper", 
            "istrain": false, 
            "lon": 2.3369456418556966, 
            "lat": 48.84185150557613, 
            "id": 76
        }, 
        {
            "group": 4, 
            "name": "admiring_shaw", 
            "istrain": false, 
            "lon": 2.3273999811335893, 
            "lat": 48.85648373458619, 
            "id": 77
        }, 
        {
            "group": 4, 
            "name": "vigorous_northcutt", 
            "istrain": false, 
            "lon": 2.326665848185347, 
            "lat": 48.88523889773867, 
            "id": 78
        }, 
        {
            "group": 4, 
            "name": "infallible_clarke", 
            "istrain": false, 
            "lon": 2.3429512740085014, 
            "lat": 48.8692207698877, 
            "id": 79
        }, 
        {
            "group": 4, 
            "name": "adoring_poitras", 
            "istrain": false, 
            "lon": 2.3427236252555175, 
            "lat": 48.86503444562579, 
            "id": 80
        }, 
        {
            "group": 4, 
            "name": "eager_fermi", 
            "istrain": false, 
            "lon": 2.3136621213343225, 
            "lat": 48.880158360285634, 
            "id": 81
        }, 
        {
            "group": 4, 
            "name": "romantic_bardeen", 
            "istrain": true, 
            "lon": 2.3266301545979804, 
            "lat": 48.84575018655819, 
            "id": 82
        }, 
        {
            "group": 4, 
            "name": "clever_snyder", 
            "istrain": true, 
            "lon": 2.332234642878558, 
            "lat": 48.87117511945992, 
            "id": 83
        }, 
        {
            "group": 4, 
            "name": "eager_austin", 
            "istrain": false, 
            "lon": 2.323104557927873, 
            "lat": 48.881716468564264, 
            "id": 84
        }, 
        {
            "group": 4, 
            "name": "laughing_hodgkin", 
            "istrain": false, 
            "lon": 2.3366903517599087, 
            "lat": 48.88196395330867, 
            "id": 85
        }, 
        {
            "group": 4, 
            "name": "cocky_nightingale", 
            "istrain": false, 
            "lon": 2.3225449817084023, 
            "lat": 48.851284559472376, 
            "id": 86
        }, 
        {
            "group": 4, 
            "name": "dreamy_archimedes", 
            "istrain": true, 
            "lon": 2.336676068136259, 
            "lat": 48.88026449612298, 
            "id": 87
        }, 
        {
            "group": 4, 
            "name": "distracted_gates", 
            "istrain": false, 
            "lon": 2.3273232585036023, 
            "lat": 48.851475793744314, 
            "id": 88
        }, 
        {
            "group": 4, 
            "name": "elastic_jackson", 
            "istrain": true, 
            "lon": 2.3385058900269033, 
            "lat": 48.86949352343593, 
            "id": 89
        }, 
        {
            "group": 4, 
            "name": "optimistic_benz", 
            "istrain": false, 
            "lon": 2.334461030879516, 
            "lat": 48.857441914158976, 
            "id": 90
        }, 
        {
            "group": 4, 
            "name": "clever_lewin", 
            "istrain": true, 
            "lon": 2.3381914608989645, 
            "lat": 48.87288392020164, 
            "id": 91
        }, 
        {
            "group": 4, 
            "name": "wizardly_babbage", 
            "istrain": true, 
            "lon": 2.3304540412914525, 
            "lat": 48.874456344897126, 
            "id": 92
        }, 
        {
            "group": 4, 
            "name": "optimistic_ardinghelli", 
            "istrain": true, 
            "lon": 2.328335706453752, 
            "lat": 48.881760363275404, 
            "id": 93
        }, 
        {
            "group": 4, 
            "name": "wizardly_morse", 
            "istrain": false, 
            "lon": 2.3238800434565747, 
            "lat": 48.85135135960858, 
            "id": 94
        }, 
        {
            "group": 4, 
            "name": "pedantic_raman", 
            "istrain": false, 
            "lon": 2.3191331130384674, 
            "lat": 48.871165584603936, 
            "id": 95
        }, 
        {
            "group": 4, 
            "name": "suspicious_jang", 
            "istrain": false, 
            "lon": 2.326544724726003, 
            "lat": 48.85000510897528, 
            "id": 96
        }, 
        {
            "group": 4, 
            "name": "relaxed_engelbart", 
            "istrain": false, 
            "lon": 2.338700143442015, 
            "lat": 48.87243185037425, 
            "id": 97
        }, 
        {
            "group": 4, 
            "name": "focused_newton", 
            "istrain": true, 
            "lon": 2.3293848703370483, 
            "lat": 48.88204888283421, 
            "id": 98
        }, 
        {
            "group": 4, 
            "name": "epic_turing", 
            "istrain": false, 
            "lon": 2.3310701052118157, 
            "lat": 48.85750883834153, 
            "id": 99
        }, 
        {
            "group": 4, 
            "name": "admiring_davinci", 
            "istrain": true, 
            "lon": 2.3462163511073983, 
            "lat": 48.86394797745092, 
            "id": 100
        }, 
        {
            "group": 4, 
            "name": "dreamy_hopper", 
            "istrain": false, 
            "lon": 2.333802178873329, 
            "lat": 48.86987021053818, 
            "id": 101
        }, 
        {
            "group": 4, 
            "name": "hungry_poincare", 
            "istrain": false, 
            "lon": 2.3164349910688977, 
            "lat": 48.86475859178536, 
            "id": 102
        }, 
        {
            "group": 4, 
            "name": "musing_kowalevski", 
            "istrain": true, 
            "lon": 2.3274032643796785, 
            "lat": 48.878454111037705, 
            "id": 103
        }, 
        {
            "group": 4, 
            "name": "suspicious_turing", 
            "istrain": true, 
            "lon": 2.336231372498714, 
            "lat": 48.85979820625563, 
            "id": 104
        }, 
        {
            "group": 4, 
            "name": "relaxed_hodgkin", 
            "istrain": false, 
            "lon": 2.3342632184485623, 
            "lat": 48.87910599076157, 
            "id": 105
        }, 
        {
            "group": 4, 
            "name": "musing_snyder", 
            "istrain": false, 
            "lon": 2.3174130334269036, 
            "lat": 48.873202766547614, 
            "id": 106
        }, 
        {
            "group": 4, 
            "name": "peaceful_davinci", 
            "istrain": true, 
            "lon": 2.3378630444485053, 
            "lat": 48.86251806780079, 
            "id": 107
        }, 
        {
            "group": 4, 
            "name": "frosty_jang", 
            "istrain": false, 
            "lon": 2.3250341041644598, 
            "lat": 48.84711372750764, 
            "id": 108
        }, 
        {
            "group": 4, 
            "name": "heuristic_einstein", 
            "istrain": true, 
            "lon": 2.318770337469922, 
            "lat": 48.86317275724766, 
            "id": 109
        }, 
        {
            "group": 4, 
            "name": "frosty_wozniak", 
            "istrain": true, 
            "lon": 2.3269492677350883, 
            "lat": 48.856581142413866, 
            "id": 110
        }, 
        {
            "group": 4, 
            "name": "sleepy_bhabha", 
            "istrain": false, 
            "lon": 2.3359155101254587, 
            "lat": 48.86240243195415, 
            "id": 111
        }, 
        {
            "group": 4, 
            "name": "jovial_gates", 
            "istrain": false, 
            "lon": 2.3159803002347505, 
            "lat": 48.86650401142663, 
            "id": 112
        }, 
        {
            "group": 4, 
            "name": "happy_mcclintock", 
            "istrain": true, 
            "lon": 2.3244654403248073, 
            "lat": 48.871366228374846, 
            "id": 113
        }, 
        {
            "group": 4, 
            "name": "adoring_bassi", 
            "istrain": true, 
            "lon": 2.317302758226674, 
            "lat": 48.86428247577484, 
            "id": 115
        }, 
        {
            "group": 4, 
            "name": "angry_lumiere", 
            "istrain": true, 
            "lon": 2.3304331274012293, 
            "lat": 48.86482688471713, 
            "id": 116
        }, 
        {
            "group": 4, 
            "name": "mystifying_benz", 
            "istrain": false, 
            "lon": 2.331107897546372, 
            "lat": 48.8507466274584, 
            "id": 117
        }, 
        {
            "group": 4, 
            "name": "pedantic_fermat", 
            "istrain": true, 
            "lon": 2.341815547574243, 
            "lat": 48.87776914754684, 
            "id": 118
        }, 
        {
            "group": 4, 
            "name": "competent_sammet", 
            "istrain": true, 
            "lon": 2.3470666462750116, 
            "lat": 48.85900019745415, 
            "id": 119
        }, 
        {
            "group": 4, 
            "name": "gallant_curie", 
            "istrain": true, 
            "lon": 2.330442973554418, 
            "lat": 48.84411867119052, 
            "id": 120
        }, 
        {
            "group": 4, 
            "name": "wonderful_jennings", 
            "istrain": true, 
            "lon": 2.3351987747649106, 
            "lat": 48.86098768857268, 
            "id": 121
        }, 
        {
            "group": 4, 
            "name": "blissful_nobel", 
            "istrain": true, 
            "lon": 2.335103632448907, 
            "lat": 48.8715864920381, 
            "id": 122
        }, 
        {
            "group": 4, 
            "name": "agitated_aryabhata", 
            "istrain": true, 
            "lon": 2.315028437681721, 
            "lat": 48.86994665672113, 
            "id": 123
        }, 
        {
            "group": 4, 
            "name": "gallant_pasteur", 
            "istrain": false, 
            "lon": 2.3309106806904345, 
            "lat": 48.85173935568785, 
            "id": 124
        }, 
        {
            "group": 4, 
            "name": "dazzling_wing", 
            "istrain": false, 
            "lon": 2.310200933988304, 
            "lat": 48.874863533101006, 
            "id": 125
        }, 
        {
            "group": 4, 
            "name": "wonderful_meitner", 
            "istrain": true, 
            "lon": 2.335745247673249, 
            "lat": 48.85080674032841, 
            "id": 126
        }, 
        {
            "group": 4, 
            "name": "kind_visvesvaraya", 
            "istrain": true, 
            "lon": 2.3518636192816604, 
            "lat": 48.856186683346365, 
            "id": 127
        }, 
        {
            "group": 4, 
            "name": "nifty_curie", 
            "istrain": false, 
            "lon": 2.327035755533063, 
            "lat": 48.87947059603035, 
            "id": 128
        }, 
        {
            "group": 4, 
            "name": "stupefied_sammet", 
            "istrain": false, 
            "lon": 2.3483065466474313, 
            "lat": 48.86361913397101, 
            "id": 129
        }, 
        {
            "group": 4, 
            "name": "upbeat_borg", 
            "istrain": false, 
            "lon": 2.349931848046943, 
            "lat": 48.86463933095993, 
            "id": 130
        }, 
        {
            "group": 4, 
            "name": "hopeful_snyder", 
            "istrain": true, 
            "lon": 2.3555336814883834, 
            "lat": 48.86620251185387, 
            "id": 131
        }, 
        {
            "group": 4, 
            "name": "nifty_keller", 
            "istrain": false, 
            "lon": 2.320164694657914, 
            "lat": 48.862214002184956, 
            "id": 132
        }, 
        {
            "group": 4, 
            "name": "sad_almeida", 
            "istrain": false, 
            "lon": 2.3440338092188493, 
            "lat": 48.855874629679036, 
            "id": 133
        }, 
        {
            "group": 4, 
            "name": "brave_northcutt", 
            "istrain": false, 
            "lon": 2.3500281387583057, 
            "lat": 48.86133481645748, 
            "id": 134
        }, 
        {
            "group": 4, 
            "name": "laughing_hodgkin", 
            "istrain": true, 
            "lon": 2.3379338861854904, 
            "lat": 48.85161502882887, 
            "id": 135
        }, 
        {
            "group": 4, 
            "name": "distracted_turing", 
            "istrain": true, 
            "lon": 2.3377776563169768, 
            "lat": 48.86093001757738, 
            "id": 136
        }, 
        {
            "group": 4, 
            "name": "epic_wilson", 
            "istrain": false, 
            "lon": 2.331037242080831, 
            "lat": 48.869374261632444, 
            "id": 137
        }, 
        {
            "group": 4, 
            "name": "optimistic_lumiere", 
            "istrain": false, 
            "lon": 2.332697140800344, 
            "lat": 48.88829161220104, 
            "id": 138
        }, 
        {
            "group": 4, 
            "name": "heuristic_panini", 
            "istrain": false, 
            "lon": 2.3276449362205116, 
            "lat": 48.852108517291505, 
            "id": 139
        }, 
        {
            "group": 4, 
            "name": "pedantic_panini", 
            "istrain": false, 
            "lon": 2.3189403345226927, 
            "lat": 48.87227216092058, 
            "id": 140
        }, 
        {
            "group": 4, 
            "name": "condescending_shirley", 
            "istrain": false, 
            "lon": 2.3442061402626284, 
            "lat": 48.86498061533046, 
            "id": 141
        }, 
        {
            "group": 4, 
            "name": "sleepy_jennings", 
            "istrain": true, 
            "lon": 2.3281084417998255, 
            "lat": 48.85112096861085, 
            "id": 142
        }, 
        {
            "group": 4, 
            "name": "happy_swanson", 
            "istrain": true, 
            "lon": 2.3345486077000075, 
            "lat": 48.86542091329415, 
            "id": 143
        }, 
        {
            "group": 4, 
            "name": "elastic_cori", 
            "istrain": false, 
            "lon": 2.3305340779319974, 
            "lat": 48.846285984487636, 
            "id": 144
        }, 
        {
            "group": 4, 
            "name": "festive_franklin", 
            "istrain": false, 
            "lon": 2.3230666106276967, 
            "lat": 48.86221013685306, 
            "id": 145
        }, 
        {
            "group": 4, 
            "name": "unruffled_dubinsky", 
            "istrain": true, 
            "lon": 2.306547583061734, 
            "lat": 48.862031005477704, 
            "id": 146
        }, 
        {
            "group": 4, 
            "name": "priceless_mcclintock", 
            "istrain": true, 
            "lon": 2.347923496637522, 
            "lat": 48.873265148275095, 
            "id": 147
        }, 
        {
            "group": 4, 
            "name": "quirky_ritchie", 
            "istrain": true, 
            "lon": 2.33393386473754, 
            "lat": 48.853308845869314, 
            "id": 148
        }, 
        {
            "group": 4, 
            "name": "lucid_poincare", 
            "istrain": false, 
            "lon": 2.3322363194725777, 
            "lat": 48.885522110396806, 
            "id": 149
        }, 
        {
            "group": 4, 
            "name": "laughing_jepsen", 
            "istrain": false, 
            "lon": 2.3406623787165977, 
            "lat": 48.87126675103711, 
            "id": 150
        }, 
        {
            "group": 4, 
            "name": "happy_cray", 
            "istrain": true, 
            "lon": 2.3378261068094486, 
            "lat": 48.87575366349529, 
            "id": 151
        }, 
        {
            "group": 4, 
            "name": "eager_archimedes", 
            "istrain": false, 
            "lon": 2.3233687596114176, 
            "lat": 48.85530408791095, 
            "id": 152
        }, 
        {
            "group": 4, 
            "name": "jovial_cori", 
            "istrain": true, 
            "lon": 2.3218976934730895, 
            "lat": 48.85922880786034, 
            "id": 153
        }, 
        {
            "group": 4, 
            "name": "wizardly_turing", 
            "istrain": false, 
            "lon": 2.329412610923516, 
            "lat": 48.88250441975941, 
            "id": 154
        }, 
        {
            "group": 4, 
            "name": "gallant_kepler", 
            "istrain": false, 
            "lon": 2.320154774476513, 
            "lat": 48.885582964945236, 
            "id": 155
        }, 
        {
            "group": 4, 
            "name": "romantic_saha", 
            "istrain": true, 
            "lon": 2.3309100059940824, 
            "lat": 48.88358875022208, 
            "id": 156
        }, 
        {
            "group": 4, 
            "name": "sharp_davinci", 
            "istrain": false, 
            "lon": 2.3282475251736914, 
            "lat": 48.866652995649105, 
            "id": 157
        }, 
        {
            "group": 4, 
            "name": "naughty_visvesvaraya", 
            "istrain": true, 
            "lon": 2.3307084452012465, 
            "lat": 48.84783971984464, 
            "id": 158
        }, 
        {
            "group": 4, 
            "name": "objective_turing", 
            "istrain": true, 
            "lon": 2.3336313660491834, 
            "lat": 48.86327385633371, 
            "id": 159
        }, 
        {
            "group": 4, 
            "name": "eloquent_neumann", 
            "istrain": true, 
            "lon": 2.350282759611543, 
            "lat": 48.863618952898165, 
            "id": 160
        }, 
        {
            "group": 4, 
            "name": "angry_murdock", 
            "istrain": false, 
            "lon": 2.331837082773717, 
            "lat": 48.858300994787484, 
            "id": 161
        }, 
        {
            "group": 4, 
            "name": "angry_bassi", 
            "istrain": false, 
            "lon": 2.322779811384919, 
            "lat": 48.88153645137785, 
            "id": 162
        }, 
        {
            "group": 4, 
            "name": "sharp_wescoff", 
            "istrain": true, 
            "lon": 2.3436685949002904, 
            "lat": 48.86869713886024, 
            "id": 163
        }, 
        {
            "group": 4, 
            "name": "hopeful_volhard", 
            "istrain": false, 
            "lon": 2.32997023455213, 
            "lat": 48.8707551454299, 
            "id": 164
        }, 
        {
            "group": 4, 
            "name": "kind_carson", 
            "istrain": true, 
            "lon": 2.3298512770383115, 
            "lat": 48.86536918378996, 
            "id": 165
        }, 
        {
            "group": 4, 
            "name": "mystifying_banach", 
            "istrain": false, 
            "lon": 2.338630488622676, 
            "lat": 48.87943154862801, 
            "id": 166
        }, 
        {
            "group": 4, 
            "name": "admiring_wozniak", 
            "istrain": false, 
            "lon": 2.3371162758305166, 
            "lat": 48.85187422655588, 
            "id": 167
        }, 
        {
            "group": 4, 
            "name": "kind_lamarr", 
            "istrain": false, 
            "lon": 2.3254588578011797, 
            "lat": 48.842033095343666, 
            "id": 168
        }, 
        {
            "group": 4, 
            "name": "naughty_leakey", 
            "istrain": true, 
            "lon": 2.3526230391799015, 
            "lat": 48.86979970730759, 
            "id": 169
        }, 
        {
            "group": 4, 
            "name": "zealous_tesla", 
            "istrain": false, 
            "lon": 2.3371033130074554, 
            "lat": 48.86937972445675, 
            "id": 170
        }, 
        {
            "group": 4, 
            "name": "naughty_goodall", 
            "istrain": false, 
            "lon": 2.3242843891583655, 
            "lat": 48.864049, 
            "id": 171
        }, 
        {
            "group": 4, 
            "name": "hardcore_pare", 
            "istrain": false, 
            "lon": 2.3301355075700467, 
            "lat": 48.87241153838158, 
            "id": 172
        }, 
        {
            "group": 4, 
            "name": "inspiring_pasteur", 
            "istrain": false, 
            "lon": 2.3245497097198147, 
            "lat": 48.87516457472529, 
            "id": 173
        }, 
        {
            "group": 4, 
            "name": "determined_mestorf", 
            "istrain": false, 
            "lon": 2.3294373414820893, 
            "lat": 48.86605315109913, 
            "id": 174
        }, 
        {
            "group": 4, 
            "name": "awesome_boyd", 
            "istrain": true, 
            "lon": 2.34642575395915, 
            "lat": 48.85911516849009, 
            "id": 175
        }, 
        {
            "group": 4, 
            "name": "gracious_kowalevski", 
            "istrain": false, 
            "lon": 2.3527154291916466, 
            "lat": 48.868255472258426, 
            "id": 176
        }, 
        {
            "group": 4, 
            "name": "quizzical_blackwell", 
            "istrain": false, 
            "lon": 2.3382339496067215, 
            "lat": 48.86394510681086, 
            "id": 177
        }, 
        {
            "group": 4, 
            "name": "sad_lamport", 
            "istrain": true, 
            "lon": 2.3306582788420083, 
            "lat": 48.84990478119064, 
            "id": 178
        }, 
        {
            "group": 4, 
            "name": "jovial_wiles", 
            "istrain": true, 
            "lon": 2.33102391171022, 
            "lat": 48.86455868256962, 
            "id": 179
        }, 
        {
            "group": 4, 
            "name": "kind_colden", 
            "istrain": true, 
            "lon": 2.3405745422044077, 
            "lat": 48.87100444002433, 
            "id": 180
        }, 
        {
            "group": 4, 
            "name": "infallible_wiles", 
            "istrain": false, 
            "lon": 2.312978156588892, 
            "lat": 48.86584351763904, 
            "id": 181
        }, 
        {
            "group": 4, 
            "name": "jovial_clarke", 
            "istrain": true, 
            "lon": 2.3483872939309345, 
            "lat": 48.861741581738315, 
            "id": 182
        }, 
        {
            "group": 4, 
            "name": "friendly_hoover", 
            "istrain": false, 
            "lon": 2.3303144005482035, 
            "lat": 48.86157314756536, 
            "id": 183
        }, 
        {
            "group": 4, 
            "name": "elastic_austin", 
            "istrain": false, 
            "lon": 2.352108032471424, 
            "lat": 48.8667515423177, 
            "id": 184
        }, 
        {
            "group": 4, 
            "name": "musing_darwin", 
            "istrain": false, 
            "lon": 2.346321501376274, 
            "lat": 48.86844264284598, 
            "id": 185
        }, 
        {
            "group": 4, 
            "name": "peaceful_kowalevski", 
            "istrain": false, 
            "lon": 2.3366496433563144, 
            "lat": 48.86719525267161, 
            "id": 186
        }, 
        {
            "group": 4, 
            "name": "cranky_goldwasser", 
            "istrain": false, 
            "lon": 2.3144432426989456, 
            "lat": 48.86166570832764, 
            "id": 187
        }, 
        {
            "group": 4, 
            "name": "amazing_curie", 
            "istrain": false, 
            "lon": 2.328080984769046, 
            "lat": 48.86509782057742, 
            "id": 188
        }, 
        {
            "group": 4, 
            "name": "admiring_roentgen", 
            "istrain": true, 
            "lon": 2.348009327269653, 
            "lat": 48.86673622019892, 
            "id": 189
        }, 
        {
            "group": 4, 
            "name": "gifted_dubinsky", 
            "istrain": false, 
            "lon": 2.337670820882216, 
            "lat": 48.84762171754485, 
            "id": 190
        }, 
        {
            "group": 4, 
            "name": "silly_ardinghelli", 
            "istrain": false, 
            "lon": 2.341426580347934, 
            "lat": 48.84584778061691, 
            "id": 191
        }, 
        {
            "group": 4, 
            "name": "wonderful_haibt", 
            "istrain": true, 
            "lon": 2.316860820613351, 
            "lat": 48.86030646382511, 
            "id": 192
        }, 
        {
            "group": 4, 
            "name": "dreamy_torvalds", 
            "istrain": false, 
            "lon": 2.3461329606236854, 
            "lat": 48.87215050198105, 
            "id": 193
        }, 
        {
            "group": 4, 
            "name": "peaceful_cori", 
            "istrain": false, 
            "lon": 2.339492454477703, 
            "lat": 48.869805713922126, 
            "id": 194
        }, 
        {
            "group": 4, 
            "name": "happy_kilby", 
            "istrain": false, 
            "lon": 2.3319200847403057, 
            "lat": 48.86480261852428, 
            "id": 195
        }, 
        {
            "group": 4, 
            "name": "loving_neumann", 
            "istrain": false, 
            "lon": 2.3169270651999967, 
            "lat": 48.854652188849, 
            "id": 196
        }, 
        {
            "group": 4, 
            "name": "nervous_perlman", 
            "istrain": true, 
            "lon": 2.3311991525765494, 
            "lat": 48.861780409221446, 
            "id": 197
        }, 
        {
            "group": 4, 
            "name": "youthful_bhaskara", 
            "istrain": true, 
            "lon": 2.321194123964384, 
            "lat": 48.86255474852728, 
            "id": 198
        }, 
        {
            "group": 4, 
            "name": "sad_swirles", 
            "istrain": false, 
            "lon": 2.338799969138717, 
            "lat": 48.86018215388792, 
            "id": 199
        }, 
        {
            "group": 4, 
            "name": "laughing_ramanujan", 
            "istrain": false, 
            "lon": 2.317181486890293, 
            "lat": 48.8637893605518, 
            "id": 200
        }, 
        {
            "group": 4, 
            "name": "confident_austin", 
            "istrain": false, 
            "lon": 2.3261312257026163, 
            "lat": 48.86766307137445, 
            "id": 201
        }, 
        {
            "group": 4, 
            "name": "zen_davinci", 
            "istrain": true, 
            "lon": 2.3244198506657137, 
            "lat": 48.878218390521674, 
            "id": 202
        }, 
        {
            "group": 4, 
            "name": "heuristic_ride", 
            "istrain": false, 
            "lon": 2.319069828893535, 
            "lat": 48.86816949529107, 
            "id": 203
        }, 
        {
            "group": 4, 
            "name": "elastic_poitras", 
            "istrain": true, 
            "lon": 2.3284177791990723, 
            "lat": 48.86952141594382, 
            "id": 204
        }, 
        {
            "group": 4, 
            "name": "kind_yonath", 
            "istrain": false, 
            "lon": 2.3279653873079176, 
            "lat": 48.85164850761914, 
            "id": 205
        }, 
        {
            "group": 4, 
            "name": "eager_clarke", 
            "istrain": false, 
            "lon": 2.334204901716725, 
            "lat": 48.854710348277806, 
            "id": 206
        }, 
        {
            "group": 4, 
            "name": "focused_curran", 
            "istrain": true, 
            "lon": 2.315123737676565, 
            "lat": 48.8708987313586, 
            "id": 207
        }, 
        {
            "group": 4, 
            "name": "zealous_dubinsky", 
            "istrain": false, 
            "lon": 2.343244196058661, 
            "lat": 48.86346892829155, 
            "id": 208
        }, 
        {
            "group": 4, 
            "name": "gracious_mcclintock", 
            "istrain": true, 
            "lon": 2.333404452625955, 
            "lat": 48.877232607871484, 
            "id": 211
        }, 
        {
            "group": 4, 
            "name": "keen_darwin", 
            "istrain": false, 
            "lon": 2.3288051242214394, 
            "lat": 48.86695386769993, 
            "id": 212
        }, 
        {
            "group": 4, 
            "name": "tender_franklin", 
            "istrain": true, 
            "lon": 2.3290039387264168, 
            "lat": 48.86277079378784, 
            "id": 213
        }, 
        {
            "group": 4, 
            "name": "adoring_bohr", 
            "istrain": true, 
            "lon": 2.3418382144331087, 
            "lat": 48.86890740535973, 
            "id": 214
        }, 
        {
            "group": 4, 
            "name": "xenodochial_snyder", 
            "istrain": false, 
            "lon": 2.3321097654763565, 
            "lat": 48.84444415633753, 
            "id": 216
        }, 
        {
            "group": 4, 
            "name": "happy_ritchie", 
            "istrain": false, 
            "lon": 2.3210061537991926, 
            "lat": 48.86201561036538, 
            "id": 217
        }, 
        {
            "group": 4, 
            "name": "laughing_mcclintock", 
            "istrain": true, 
            "lon": 2.3472227245373407, 
            "lat": 48.864122190608114, 
            "id": 218
        }, 
        {
            "group": 4, 
            "name": "jolly_minsky", 
            "istrain": false, 
            "lon": 2.319953995926859, 
            "lat": 48.878842683670946, 
            "id": 219
        }, 
        {
            "group": 4, 
            "name": "blissful_mayer", 
            "istrain": true, 
            "lon": 2.3314166053243826, 
            "lat": 48.875226773982774, 
            "id": 220
        }, 
        {
            "group": 4, 
            "name": "objective_varahamihira", 
            "istrain": false, 
            "lon": 2.339330261116263, 
            "lat": 48.86107267739209, 
            "id": 221
        }, 
        {
            "group": 4, 
            "name": "vibrant_lamport", 
            "istrain": true, 
            "lon": 2.31570039193707, 
            "lat": 48.85239726654045, 
            "id": 222
        }, 
        {
            "group": 4, 
            "name": "elated_mclean", 
            "istrain": false, 
            "lon": 2.35351456261364, 
            "lat": 48.86218576116014, 
            "id": 223
        }, 
        {
            "group": 4, 
            "name": "suspicious_sammet", 
            "istrain": true, 
            "lon": 2.33970220988049, 
            "lat": 48.85183235705629, 
            "id": 224
        }, 
        {
            "group": 4, 
            "name": "gallant_poitras", 
            "istrain": true, 
            "lon": 2.3088619771349155, 
            "lat": 48.86416914408297, 
            "id": 225
        }, 
        {
            "group": 4, 
            "name": "blissful_gates", 
            "istrain": true, 
            "lon": 2.3292701036742045, 
            "lat": 48.881676384897474, 
            "id": 226
        }, 
        {
            "group": 4, 
            "name": "awesome_booth", 
            "istrain": true, 
            "lon": 2.334895296733088, 
            "lat": 48.85971209672155, 
            "id": 227
        }, 
        {
            "group": 4, 
            "name": "competent_mirzakhani", 
            "istrain": false, 
            "lon": 2.329544668164657, 
            "lat": 48.86584424240108, 
            "id": 228
        }, 
        {
            "group": 4, 
            "name": "optimistic_varahamihira", 
            "istrain": false, 
            "lon": 2.344894745029021, 
            "lat": 48.86775662776351, 
            "id": 229
        }, 
        {
            "group": 4, 
            "name": "elastic_agnesi", 
            "istrain": false, 
            "lon": 2.3259810577389644, 
            "lat": 48.86114361676736, 
            "id": 230
        }, 
        {
            "group": 4, 
            "name": "eager_cori", 
            "istrain": false, 
            "lon": 2.3391251674097857, 
            "lat": 48.86821040799586, 
            "id": 231
        }, 
        {
            "group": 4, 
            "name": "happy_leavitt", 
            "istrain": true, 
            "lon": 2.3526213622377234, 
            "lat": 48.85978910776258, 
            "id": 232
        }, 
        {
            "group": 4, 
            "name": "eager_noether", 
            "istrain": true, 
            "lon": 2.3297438060517677, 
            "lat": 48.87252476869553, 
            "id": 233
        }, 
        {
            "group": 4, 
            "name": "kind_johnson", 
            "istrain": true, 
            "lon": 2.3176870315305016, 
            "lat": 48.86248468627391, 
            "id": 234
        }, 
        {
            "group": 4, 
            "name": "agitated_shockley", 
            "istrain": false, 
            "lon": 2.3421116456129196, 
            "lat": 48.857229852262535, 
            "id": 235
        }, 
        {
            "group": 4, 
            "name": "vigorous_neumann", 
            "istrain": false, 
            "lon": 2.3229525146158494, 
            "lat": 48.864626376797986, 
            "id": 236
        }, 
        {
            "group": 4, 
            "name": "reverent_bartik", 
            "istrain": false, 
            "lon": 2.346256659612887, 
            "lat": 48.86625868763037, 
            "id": 237
        }, 
        {
            "group": 4, 
            "name": "vigorous_fermi", 
            "istrain": false, 
            "lon": 2.332384455094067, 
            "lat": 48.88569312558628, 
            "id": 238
        }, 
        {
            "group": 4, 
            "name": "friendly_swanson", 
            "istrain": false, 
            "lon": 2.334452362812414, 
            "lat": 48.85571067061252, 
            "id": 239
        }, 
        {
            "group": 4, 
            "name": "relaxed_fermat", 
            "istrain": true, 
            "lon": 2.3104177700275423, 
            "lat": 48.87563870880542, 
            "id": 240
        }, 
        {
            "group": 4, 
            "name": "condescending_hamilton", 
            "istrain": true, 
            "lon": 2.310909353133311, 
            "lat": 48.854438010802994, 
            "id": 241
        }, 
        {
            "group": 4, 
            "name": "xenodochial_minsky", 
            "istrain": true, 
            "lon": 2.3337148185837546, 
            "lat": 48.871684253968986, 
            "id": 242
        }, 
        {
            "group": 4, 
            "name": "jovial_cori", 
            "istrain": false, 
            "lon": 2.3150863645340665, 
            "lat": 48.870288620040576, 
            "id": 243
        }, 
        {
            "group": 4, 
            "name": "quizzical_bhaskara", 
            "istrain": false, 
            "lon": 2.33698837230856, 
            "lat": 48.865686805186364, 
            "id": 244
        }, 
        {
            "group": 4, 
            "name": "quirky_varahamihira", 
            "istrain": true, 
            "lon": 2.331941486215705, 
            "lat": 48.87087920310239, 
            "id": 245
        }, 
        {
            "group": 4, 
            "name": "elegant_bardeen", 
            "istrain": true, 
            "lon": 2.322482083680973, 
            "lat": 48.854759105288785, 
            "id": 246
        }, 
        {
            "group": 4, 
            "name": "serene_mayer", 
            "istrain": true, 
            "lon": 2.3153232580129655, 
            "lat": 48.848568504696054, 
            "id": 247
        }, 
        {
            "group": 4, 
            "name": "nervous_tesla", 
            "istrain": true, 
            "lon": 2.337509546940047, 
            "lat": 48.856821559357996, 
            "id": 248
        }, 
        {
            "group": 4, 
            "name": "vigilant_mccarthy", 
            "istrain": false, 
            "lon": 2.333721129043528, 
            "lat": 48.86391835040061, 
            "id": 249
        }, 
        {
            "group": 4, 
            "name": "pensive_goodall", 
            "istrain": true, 
            "lon": 2.342395131718023, 
            "lat": 48.8787398473052, 
            "id": 250
        }, 
        {
            "group": 4, 
            "name": "musing_payne", 
            "istrain": false, 
            "lon": 2.3396880593291427, 
            "lat": 48.84937085432292, 
            "id": 251
        }, 
        {
            "group": 4, 
            "name": "compassionate_edison", 
            "istrain": false, 
            "lon": 2.3166107753108545, 
            "lat": 48.869561602786256, 
            "id": 252
        }, 
        {
            "group": 4, 
            "name": "nifty_shaw", 
            "istrain": false, 
            "lon": 2.339467363785939, 
            "lat": 48.85376676931421, 
            "id": 253
        }, 
        {
            "group": 4, 
            "name": "vigorous_jennings", 
            "istrain": false, 
            "lon": 2.32657456619414, 
            "lat": 48.88397569171617, 
            "id": 254
        }, 
        {
            "group": 4, 
            "name": "objective_joliot", 
            "istrain": true, 
            "lon": 2.32506065003018, 
            "lat": 48.8665802228982, 
            "id": 255
        }, 
        {
            "group": 4, 
            "name": "gallant_benz", 
            "istrain": true, 
            "lon": 2.3222333091904055, 
            "lat": 48.87296154774001, 
            "id": 256
        }, 
        {
            "group": 4, 
            "name": "tender_darwin", 
            "istrain": false, 
            "lon": 2.3200341002986877, 
            "lat": 48.863949733550015, 
            "id": 257
        }, 
        {
            "group": 4, 
            "name": "objective_mahavira", 
            "istrain": false, 
            "lon": 2.3289126940260734, 
            "lat": 48.88011399007684, 
            "id": 258
        }, 
        {
            "group": 4, 
            "name": "laughing_snyder", 
            "istrain": true, 
            "lon": 2.3408100204820834, 
            "lat": 48.86964074145601, 
            "id": 259
        }, 
        {
            "group": 4, 
            "name": "epic_perlman", 
            "istrain": false, 
            "lon": 2.33160250530978, 
            "lat": 48.862095886638194, 
            "id": 260
        }, 
        {
            "group": 4, 
            "name": "fervent_carson", 
            "istrain": false, 
            "lon": 2.3313086486369548, 
            "lat": 48.8614944666305, 
            "id": 261
        }, 
        {
            "group": 4, 
            "name": "dreamy_ritchie", 
            "istrain": false, 
            "lon": 2.342539782233913, 
            "lat": 48.87793701009144, 
            "id": 262
        }, 
        {
            "group": 4, 
            "name": "clever_benz", 
            "istrain": true, 
            "lon": 2.338627854984579, 
            "lat": 48.86501450860721, 
            "id": 263
        }, 
        {
            "group": 4, 
            "name": "compassionate_stallman", 
            "istrain": false, 
            "lon": 2.341037218813842, 
            "lat": 48.87127475226451, 
            "id": 264
        }, 
        {
            "group": 4, 
            "name": "vigorous_jennings", 
            "istrain": true, 
            "lon": 2.3514847410881003, 
            "lat": 48.85470893165525, 
            "id": 265
        }, 
        {
            "group": 4, 
            "name": "nervous_bose", 
            "istrain": false, 
            "lon": 2.3321327975707673, 
            "lat": 48.85776453591119, 
            "id": 266
        }, 
        {
            "group": 4, 
            "name": "vigilant_joliot", 
            "istrain": true, 
            "lon": 2.3428188414781688, 
            "lat": 48.858212404485215, 
            "id": 267
        }, 
        {
            "group": 4, 
            "name": "blissful_noyce", 
            "istrain": false, 
            "lon": 2.3424521696307505, 
            "lat": 48.86661034714961, 
            "id": 268
        }, 
        {
            "group": 4, 
            "name": "gracious_pare", 
            "istrain": false, 
            "lon": 2.3504712875964304, 
            "lat": 48.86044981102316, 
            "id": 269
        }, 
        {
            "group": 4, 
            "name": "distracted_wright", 
            "istrain": false, 
            "lon": 2.328973187086634, 
            "lat": 48.85427800909536, 
            "id": 270
        }, 
        {
            "group": 4, 
            "name": "unruffled_haibt", 
            "istrain": false, 
            "lon": 2.330857642666054, 
            "lat": 48.88169814615312, 
            "id": 271
        }, 
        {
            "group": 4, 
            "name": "loving_euler", 
            "istrain": true, 
            "lon": 2.311301949467824, 
            "lat": 48.86187044594957, 
            "id": 272
        }, 
        {
            "group": 4, 
            "name": "stoic_albattani", 
            "istrain": true, 
            "lon": 2.330069137577793, 
            "lat": 48.860540286899045, 
            "id": 273
        }, 
        {
            "group": 4, 
            "name": "inspiring_ritchie", 
            "istrain": true, 
            "lon": 2.3260054722806625, 
            "lat": 48.87055380187939, 
            "id": 274
        }, 
        {
            "group": 4, 
            "name": "distracted_torvalds", 
            "istrain": true, 
            "lon": 2.3367408118962185, 
            "lat": 48.861738492384276, 
            "id": 275
        }, 
        {
            "group": 4, 
            "name": "awesome_bell", 
            "istrain": false, 
            "lon": 2.342000885488692, 
            "lat": 48.8621406151726, 
            "id": 276
        }, 
        {
            "group": 4, 
            "name": "agitated_mccarthy", 
            "istrain": true, 
            "lon": 2.344816566366293, 
            "lat": 48.85903046583078, 
            "id": 277
        }, 
        {
            "group": 4, 
            "name": "nervous_montalcini", 
            "istrain": true, 
            "lon": 2.3330431978940704, 
            "lat": 48.85677674253367, 
            "id": 278
        }, 
        {
            "group": 4, 
            "name": "friendly_elion", 
            "istrain": true, 
            "lon": 2.3339657727017284, 
            "lat": 48.88699880888805, 
            "id": 279
        }, 
        {
            "group": 4, 
            "name": "jolly_hawking", 
            "istrain": true, 
            "lon": 2.3250999098032303, 
            "lat": 48.880046121851805, 
            "id": 280
        }, 
        {
            "group": 4, 
            "name": "adoring_wiles", 
            "istrain": true, 
            "lon": 2.3217138708989054, 
            "lat": 48.86657088826151, 
            "id": 281
        }, 
        {
            "group": 4, 
            "name": "elegant_perlman", 
            "istrain": true, 
            "lon": 2.3438794869193442, 
            "lat": 48.862737345772615, 
            "id": 282
        }, 
        {
            "group": 4, 
            "name": "friendly_swirles", 
            "istrain": true, 
            "lon": 2.3241521553103426, 
            "lat": 48.8621377245057, 
            "id": 283
        }, 
        {
            "group": 4, 
            "name": "distracted_colden", 
            "istrain": true, 
            "lon": 2.3402763377404945, 
            "lat": 48.87024639819338, 
            "id": 284
        }, 
        {
            "group": 4, 
            "name": "admiring_engelbart", 
            "istrain": false, 
            "lon": 2.32511930988543, 
            "lat": 48.86399479590222, 
            "id": 285
        }, 
        {
            "group": 4, 
            "name": "priceless_jones", 
            "istrain": true, 
            "lon": 2.316490312050929, 
            "lat": 48.86308522729944, 
            "id": 286
        }, 
        {
            "group": 4, 
            "name": "condescending_wiles", 
            "istrain": false, 
            "lon": 2.3250316277093455, 
            "lat": 48.861342884958425, 
            "id": 288
        }, 
        {
            "group": 4, 
            "name": "youthful_hermann", 
            "istrain": true, 
            "lon": 2.3340253587470583, 
            "lat": 48.86927845219165, 
            "id": 289
        }, 
        {
            "group": 4, 
            "name": "ecstatic_aryabhata", 
            "istrain": true, 
            "lon": 2.3248698283337266, 
            "lat": 48.86706460264219, 
            "id": 290
        }, 
        {
            "group": 4, 
            "name": "silly_chandrasekhar", 
            "istrain": true, 
            "lon": 2.317684090108391, 
            "lat": 48.878402491368135, 
            "id": 291
        }, 
        {
            "group": 4, 
            "name": "adoring_gates", 
            "istrain": false, 
            "lon": 2.3400818920550135, 
            "lat": 48.87260237822677, 
            "id": 293
        }, 
        {
            "group": 4, 
            "name": "kind_swartz", 
            "istrain": true, 
            "lon": 2.340556654369759, 
            "lat": 48.86111099208023, 
            "id": 294
        }, 
        {
            "group": 4, 
            "name": "agitated_elion", 
            "istrain": true, 
            "lon": 2.3294301497064325, 
            "lat": 48.86394934630106, 
            "id": 295
        }, 
        {
            "group": 4, 
            "name": "wonderful_montalcini", 
            "istrain": false, 
            "lon": 2.331423144115668, 
            "lat": 48.85387165700705, 
            "id": 296
        }, 
        {
            "group": 4, 
            "name": "cocky_northcutt", 
            "istrain": false, 
            "lon": 2.3236330144383297, 
            "lat": 48.86382411449425, 
            "id": 297
        }, 
        {
            "group": 4, 
            "name": "festive_hoover", 
            "istrain": false, 
            "lon": 2.314049424537801, 
            "lat": 48.87481518439994, 
            "id": 298
        }, 
        {
            "group": 4, 
            "name": "determined_roentgen", 
            "istrain": false, 
            "lon": 2.3189036494416273, 
            "lat": 48.8623951263217, 
            "id": 299
        }, 
        {
            "group": 4, 
            "name": "wonderful_pasteur", 
            "istrain": true, 
            "lon": 2.3158818545416326, 
            "lat": 48.866103880434686, 
            "id": 300
        }, 
        {
            "group": 4, 
            "name": "hopeful_shockley", 
            "istrain": false, 
            "lon": 2.3236667117374736, 
            "lat": 48.8426109977036, 
            "id": 301
        }, 
        {
            "group": 4, 
            "name": "frosty_dubinsky", 
            "istrain": true, 
            "lon": 2.3270992679051705, 
            "lat": 48.86695573197718, 
            "id": 302
        }, 
        {
            "group": 4, 
            "name": "quirky_darwin", 
            "istrain": true, 
            "lon": 2.3188335473508483, 
            "lat": 48.86279886004002, 
            "id": 303
        }, 
        {
            "group": 4, 
            "name": "laughing_mayer", 
            "istrain": false, 
            "lon": 2.3418233732375002, 
            "lat": 48.87726584975117, 
            "id": 304
        }, 
        {
            "group": 4, 
            "name": "awesome_franklin", 
            "istrain": false, 
            "lon": 2.3143140101258726, 
            "lat": 48.86092158371133, 
            "id": 305
        }, 
        {
            "group": 4, 
            "name": "quirky_knuth", 
            "istrain": false, 
            "lon": 2.3242880385227953, 
            "lat": 48.86591613142918, 
            "id": 306
        }, 
        {
            "group": 4, 
            "name": "keen_shirley", 
            "istrain": true, 
            "lon": 2.3299810807227868, 
            "lat": 48.86567659661115, 
            "id": 307
        }, 
        {
            "group": 4, 
            "name": "awesome_aryabhata", 
            "istrain": true, 
            "lon": 2.3245641384903917, 
            "lat": 48.86630877838522, 
            "id": 308
        }, 
        {
            "group": 4, 
            "name": "thirsty_knuth", 
            "istrain": false, 
            "lon": 2.323561380687154, 
            "lat": 48.870510313263395, 
            "id": 309
        }, 
        {
            "group": 4, 
            "name": "keen_williams", 
            "istrain": true, 
            "lon": 2.329551013317476, 
            "lat": 48.85043091821645, 
            "id": 310
        }, 
        {
            "group": 4, 
            "name": "awesome_jepsen", 
            "istrain": true, 
            "lon": 2.3403940848813574, 
            "lat": 48.85781795855098, 
            "id": 311
        }, 
        {
            "group": 4, 
            "name": "eloquent_banach", 
            "istrain": true, 
            "lon": 2.3496703696272414, 
            "lat": 48.86709385025132, 
            "id": 312
        }, 
        {
            "group": 4, 
            "name": "boring_galileo", 
            "istrain": true, 
            "lon": 2.3276827459143847, 
            "lat": 48.858768647891324, 
            "id": 313
        }, 
        {
            "group": 4, 
            "name": "boring_almeida", 
            "istrain": true, 
            "lon": 2.329239777707614, 
            "lat": 48.86073565398637, 
            "id": 314
        }, 
        {
            "group": 4, 
            "name": "modest_cray", 
            "istrain": false, 
            "lon": 2.347087700977641, 
            "lat": 48.865060349617615, 
            "id": 315
        }, 
        {
            "group": 4, 
            "name": "condescending_heisenberg", 
            "istrain": true, 
            "lon": 2.3296836355389656, 
            "lat": 48.8539052756771, 
            "id": 316
        }, 
        {
            "group": 4, 
            "name": "sharp_perlman", 
            "istrain": true, 
            "lon": 2.328098470608148, 
            "lat": 48.84072271489507, 
            "id": 317
        }, 
        {
            "group": 4, 
            "name": "wonderful_visvesvaraya", 
            "istrain": true, 
            "lon": 2.323359965031685, 
            "lat": 48.85250207335775, 
            "id": 318
        }, 
        {
            "group": 4, 
            "name": "naughty_knuth", 
            "istrain": true, 
            "lon": 2.342943343706819, 
            "lat": 48.84907238989568, 
            "id": 319
        }, 
        {
            "group": 4, 
            "name": "gracious_mccarthy", 
            "istrain": false, 
            "lon": 2.325133343470116, 
            "lat": 48.85415351300583, 
            "id": 320
        }, 
        {
            "group": 4, 
            "name": "naughty_mcnulty", 
            "istrain": false, 
            "lon": 2.338338006517354, 
            "lat": 48.85846696357844, 
            "id": 321
        }, 
        {
            "group": 4, 
            "name": "romantic_volhard", 
            "istrain": true, 
            "lon": 2.330526795471828, 
            "lat": 48.86102237547325, 
            "id": 322
        }, 
        {
            "group": 4, 
            "name": "trusting_ardinghelli", 
            "istrain": false, 
            "lon": 2.335470108551012, 
            "lat": 48.856419832134144, 
            "id": 323
        }, 
        {
            "group": 4, 
            "name": "romantic_agnesi", 
            "istrain": true, 
            "lon": 2.3070558022707046, 
            "lat": 48.860562264159576, 
            "id": 324
        }, 
        {
            "group": 4, 
            "name": "eager_noyce", 
            "istrain": false, 
            "lon": 2.3453517157320083, 
            "lat": 48.86222460564838, 
            "id": 325
        }, 
        {
            "group": 4, 
            "name": "heuristic_haibt", 
            "istrain": true, 
            "lon": 2.322459642737817, 
            "lat": 48.86275532890761, 
            "id": 326
        }, 
        {
            "group": 4, 
            "name": "quizzical_nightingale", 
            "istrain": true, 
            "lon": 2.3285769782540524, 
            "lat": 48.84831022002492, 
            "id": 327
        }, 
        {
            "group": 4, 
            "name": "gallant_murdock", 
            "istrain": false, 
            "lon": 2.3284104700518355, 
            "lat": 48.858594677808284, 
            "id": 328
        }, 
        {
            "group": 4, 
            "name": "xenodochial_bell", 
            "istrain": false, 
            "lon": 2.3315584109915637, 
            "lat": 48.862786522935465, 
            "id": 329
        }, 
        {
            "group": 4, 
            "name": "quizzical_brown", 
            "istrain": true, 
            "lon": 2.342921473558123, 
            "lat": 48.8563250843306, 
            "id": 330
        }, 
        {
            "group": 4, 
            "name": "upbeat_darwin", 
            "istrain": true, 
            "lon": 2.3522891748552337, 
            "lat": 48.86293919771663, 
            "id": 331
        }, 
        {
            "group": 4, 
            "name": "angry_kilby", 
            "istrain": false, 
            "lon": 2.327129460567246, 
            "lat": 48.857339183092584, 
            "id": 332
        }, 
        {
            "group": 4, 
            "name": "dazzling_boyd", 
            "istrain": true, 
            "lon": 2.327338776049453, 
            "lat": 48.84056711556908, 
            "id": 333
        }, 
        {
            "group": 4, 
            "name": "upbeat_sinoussi", 
            "istrain": false, 
            "lon": 2.324101725109425, 
            "lat": 48.85479130347394, 
            "id": 334
        }, 
        {
            "group": 4, 
            "name": "friendly_bardeen", 
            "istrain": true, 
            "lon": 2.3181688595347154, 
            "lat": 48.859771433169364, 
            "id": 336
        }, 
        {
            "group": 4, 
            "name": "quirky_dubinsky", 
            "istrain": true, 
            "lon": 2.3246531700320823, 
            "lat": 48.866886369337536, 
            "id": 337
        }, 
        {
            "group": 4, 
            "name": "wizardly_mcclintock", 
            "istrain": false, 
            "lon": 2.347291070286481, 
            "lat": 48.86275551535428, 
            "id": 338
        }, 
        {
            "group": 4, 
            "name": "brave_hodgkin", 
            "istrain": true, 
            "lon": 2.3384796429471693, 
            "lat": 48.86272099491045, 
            "id": 339
        }, 
        {
            "group": 4, 
            "name": "epic_einstein", 
            "istrain": true, 
            "lon": 2.3303507764043525, 
            "lat": 48.8521570801431, 
            "id": 340
        }, 
        {
            "group": 4, 
            "name": "amazing_bassi", 
            "istrain": false, 
            "lon": 2.3402197591197798, 
            "lat": 48.86479832311729, 
            "id": 341
        }, 
        {
            "group": 4, 
            "name": "amazing_noyce", 
            "istrain": false, 
            "lon": 2.3512934919661985, 
            "lat": 48.864049, 
            "id": 342
        }, 
        {
            "group": 4, 
            "name": "jolly_hoover", 
            "istrain": true, 
            "lon": 2.321992491541983, 
            "lat": 48.882301130997554, 
            "id": 343
        }, 
        {
            "group": 4, 
            "name": "gifted_babbage", 
            "istrain": true, 
            "lon": 2.3314232199064495, 
            "lat": 48.85157913357501, 
            "id": 344
        }, 
        {
            "group": 4, 
            "name": "affectionate_swirles", 
            "istrain": true, 
            "lon": 2.334458193115234, 
            "lat": 48.85657849100924, 
            "id": 345
        }, 
        {
            "group": 4, 
            "name": "objective_goldberg", 
            "istrain": false, 
            "lon": 2.3333396256068513, 
            "lat": 48.846977748010666, 
            "id": 346
        }, 
        {
            "group": 4, 
            "name": "vigorous_spence", 
            "istrain": false, 
            "lon": 2.3265352976964158, 
            "lat": 48.85250921577325, 
            "id": 347
        }, 
        {
            "group": 2, 
            "name": "dazzling_khorana", 
            "istrain": false, 
            "lon": 2.352836115487166, 
            "lat": 48.85140347550634, 
            "id": 348
        }, 
        {
            "group": 3, 
            "name": "naughty_newton", 
            "istrain": true, 
            "lon": 2.2864070380879156, 
            "lat": 48.84488571456445, 
            "id": 349
        }, 
        {
            "group": 3, 
            "name": "determined_euclid", 
            "istrain": true, 
            "lon": 2.2876799647431114, 
            "lat": 48.862625300147506, 
            "id": 350
        }, 
        {
            "group": 3, 
            "name": "affectionate_shannon", 
            "istrain": true, 
            "lon": 2.293773307966675, 
            "lat": 48.86203749617934, 
            "id": 351
        }, 
        {
            "group": 3, 
            "name": "priceless_dubinsky", 
            "istrain": true, 
            "lon": 2.306496935834001, 
            "lat": 48.85382512750008, 
            "id": 352
        }, 
        {
            "group": 3, 
            "name": "trusting_elion", 
            "istrain": true, 
            "lon": 2.2981261515488023, 
            "lat": 48.85561013900312, 
            "id": 353
        }, 
        {
            "group": 3, 
            "name": "epic_mestorf", 
            "istrain": true, 
            "lon": 2.290470175542565, 
            "lat": 48.86130377108995, 
            "id": 354
        }, 
        {
            "group": 3, 
            "name": "naughty_ramanujan", 
            "istrain": true, 
            "lon": 2.2975642357892503, 
            "lat": 48.86017814283739, 
            "id": 355
        }, 
        {
            "group": 3, 
            "name": "goofy_kalam", 
            "istrain": false, 
            "lon": 2.291822220808469, 
            "lat": 48.852809838344015, 
            "id": 356
        }, 
        {
            "group": 3, 
            "name": "hopeful_wing", 
            "istrain": true, 
            "lon": 2.286920572474942, 
            "lat": 48.85086525728683, 
            "id": 357
        }, 
        {
            "group": 3, 
            "name": "naughty_rosalind", 
            "istrain": true, 
            "lon": 2.296808015869338, 
            "lat": 48.86458490397153, 
            "id": 359
        }, 
        {
            "group": 3, 
            "name": "eager_bohr", 
            "istrain": true, 
            "lon": 2.29075597774004, 
            "lat": 48.85287177895711, 
            "id": 360
        }, 
        {
            "group": 3, 
            "name": "gracious_jepsen", 
            "istrain": true, 
            "lon": 2.3005189036150093, 
            "lat": 48.85582533706354, 
            "id": 361
        }, 
        {
            "group": 3, 
            "name": "elated_hodgkin", 
            "istrain": true, 
            "lon": 2.302523183822548, 
            "lat": 48.866354654047946, 
            "id": 362
        }, 
        {
            "group": 3, 
            "name": "angry_feynman", 
            "istrain": false, 
            "lon": 2.3068848421062076, 
            "lat": 48.85837, 
            "id": 363
        }, 
        {
            "group": 3, 
            "name": "priceless_wozniak", 
            "istrain": false, 
            "lon": 2.295370723807013, 
            "lat": 48.873397214991996, 
            "id": 364
        }, 
        {
            "group": 3, 
            "name": "agitated_poincare", 
            "istrain": true, 
            "lon": 2.2903448813766807, 
            "lat": 48.87288241749241, 
            "id": 365
        }, 
        {
            "group": 3, 
            "name": "nervous_heyrovsky", 
            "istrain": false, 
            "lon": 2.2960045608325124, 
            "lat": 48.87323244173663, 
            "id": 366
        }, 
        {
            "group": 3, 
            "name": "kind_ritchie", 
            "istrain": true, 
            "lon": 2.29710257945911, 
            "lat": 48.856889012547235, 
            "id": 367
        }, 
        {
            "group": 3, 
            "name": "clever_booth", 
            "istrain": false, 
            "lon": 2.29476519845465, 
            "lat": 48.8693136144469, 
            "id": 368
        }, 
        {
            "group": 3, 
            "name": "focused_jennings", 
            "istrain": true, 
            "lon": 2.2945193861012427, 
            "lat": 48.8534904410766, 
            "id": 369
        }, 
        {
            "group": 3, 
            "name": "flamboyant_lamarr", 
            "istrain": false, 
            "lon": 2.284977591725576, 
            "lat": 48.849705867399656, 
            "id": 370
        }, 
        {
            "group": 3, 
            "name": "nifty_johnson", 
            "istrain": false, 
            "lon": 2.281335971111161, 
            "lat": 48.860350981718035, 
            "id": 371
        }, 
        {
            "group": 3, 
            "name": "zen_wescoff", 
            "istrain": true, 
            "lon": 2.309701354303502, 
            "lat": 48.85489627816109, 
            "id": 372
        }, 
        {
            "group": 3, 
            "name": "elegant_ride", 
            "istrain": true, 
            "lon": 2.2855654021393446, 
            "lat": 48.86181226110792, 
            "id": 373
        }, 
        {
            "group": 3, 
            "name": "awesome_lovelace", 
            "istrain": false, 
            "lon": 2.2949020675716123, 
            "lat": 48.86261154219609, 
            "id": 374
        }, 
        {
            "group": 3, 
            "name": "clever_borg", 
            "istrain": false, 
            "lon": 2.301173367158621, 
            "lat": 48.849526296028856, 
            "id": 375
        }, 
        {
            "group": 3, 
            "name": "elated_bardeen", 
            "istrain": true, 
            "lon": 2.288873692996084, 
            "lat": 48.86767932121428, 
            "id": 376
        }, 
        {
            "group": 3, 
            "name": "optimistic_wilson", 
            "istrain": false, 
            "lon": 2.3018295786104903, 
            "lat": 48.861546201997896, 
            "id": 377
        }, 
        {
            "group": 3, 
            "name": "laughing_heyrovsky", 
            "istrain": true, 
            "lon": 2.3105521349910867, 
            "lat": 48.85837724622342, 
            "id": 378
        }, 
        {
            "group": 3, 
            "name": "sharp_leavitt", 
            "istrain": true, 
            "lon": 2.296853318944109, 
            "lat": 48.86184388192906, 
            "id": 379
        }, 
        {
            "group": 3, 
            "name": "gallant_hopper", 
            "istrain": true, 
            "lon": 2.302233583688464, 
            "lat": 48.85432550187557, 
            "id": 380
        }, 
        {
            "group": 3, 
            "name": "xenodochial_hugle", 
            "istrain": false, 
            "lon": 2.292566162887706, 
            "lat": 48.85496501719605, 
            "id": 381
        }, 
        {
            "group": 3, 
            "name": "elastic_yonath", 
            "istrain": true, 
            "lon": 2.2820421315274455, 
            "lat": 48.84983807520353, 
            "id": 382
        }, 
        {
            "group": 3, 
            "name": "stoic_galileo", 
            "istrain": true, 
            "lon": 2.2828512318559318, 
            "lat": 48.85742614483762, 
            "id": 383
        }, 
        {
            "group": 3, 
            "name": "flamboyant_chandrasekhar", 
            "istrain": true, 
            "lon": 2.3072346178074934, 
            "lat": 48.85593443418362, 
            "id": 384
        }, 
        {
            "group": 3, 
            "name": "lucid_tesla", 
            "istrain": false, 
            "lon": 2.302973072501336, 
            "lat": 48.856623924766154, 
            "id": 385
        }, 
        {
            "group": 3, 
            "name": "silly_banach", 
            "istrain": false, 
            "lon": 2.3040526149957445, 
            "lat": 48.85358522962705, 
            "id": 386
        }, 
        {
            "group": 3, 
            "name": "elegant_bell", 
            "istrain": false, 
            "lon": 2.2857074705124214, 
            "lat": 48.86017443805733, 
            "id": 387
        }, 
        {
            "group": 3, 
            "name": "happy_brahmagupta", 
            "istrain": false, 
            "lon": 2.297829254815051, 
            "lat": 48.848241002869166, 
            "id": 388
        }, 
        {
            "group": 3, 
            "name": "upbeat_kalam", 
            "istrain": false, 
            "lon": 2.3029426974821163, 
            "lat": 48.85837, 
            "id": 389
        }, 
        {
            "group": 3, 
            "name": "serene_einstein", 
            "istrain": false, 
            "lon": 2.287625869859473, 
            "lat": 48.86515467853553, 
            "id": 390
        }, 
        {
            "group": 3, 
            "name": "gracious_bhaskara", 
            "istrain": false, 
            "lon": 2.283401945482172, 
            "lat": 48.8576407196075, 
            "id": 391
        }, 
        {
            "group": 3, 
            "name": "vigorous_easley", 
            "istrain": false, 
            "lon": 2.3030574591894353, 
            "lat": 48.852320449222994, 
            "id": 392
        }, 
        {
            "group": 3, 
            "name": "nervous_austin", 
            "istrain": true, 
            "lon": 2.293717088633408, 
            "lat": 48.86078353028481, 
            "id": 393
        }, 
        {
            "group": 3, 
            "name": "hungry_bohr", 
            "istrain": true, 
            "lon": 2.2838746815589728, 
            "lat": 48.86115373529337, 
            "id": 394
        }, 
        {
            "group": 3, 
            "name": "xenodochial_meitner", 
            "istrain": true, 
            "lon": 2.295908792609992, 
            "lat": 48.8567984298785, 
            "id": 395
        }, 
        {
            "group": 3, 
            "name": "musing_haibt", 
            "istrain": true, 
            "lon": 2.297819728920382, 
            "lat": 48.8695492594831, 
            "id": 396
        }, 
        {
            "group": 3, 
            "name": "happy_elion", 
            "istrain": true, 
            "lon": 2.299012262829769, 
            "lat": 48.8561836189801, 
            "id": 397
        }, 
        {
            "group": 3, 
            "name": "focused_cray", 
            "istrain": false, 
            "lon": 2.29408376463462, 
            "lat": 48.85702614688074, 
            "id": 398
        }, 
        {
            "group": 3, 
            "name": "modest_kilby", 
            "istrain": false, 
            "lon": 2.290927548065843, 
            "lat": 48.863231660979565, 
            "id": 399
        }, 
        {
            "group": 3, 
            "name": "kind_brown", 
            "istrain": false, 
            "lon": 2.2878881038691246, 
            "lat": 48.853259859317355, 
            "id": 400
        }, 
        {
            "group": 3, 
            "name": "pedantic_mcnulty", 
            "istrain": false, 
            "lon": 2.2944378958462464, 
            "lat": 48.86278055340097, 
            "id": 401
        }, 
        {
            "group": 3, 
            "name": "zen_agnesi", 
            "istrain": true, 
            "lon": 2.30459381456976, 
            "lat": 48.862307147015535, 
            "id": 402
        }, 
        {
            "group": 3, 
            "name": "trusting_lalande", 
            "istrain": true, 
            "lon": 2.285805446233135, 
            "lat": 48.85396578072569, 
            "id": 403
        }, 
        {
            "group": 3, 
            "name": "jovial_spence", 
            "istrain": true, 
            "lon": 2.301869999558901, 
            "lat": 48.8569217507302, 
            "id": 404
        }, 
        {
            "group": 3, 
            "name": "eager_franklin", 
            "istrain": true, 
            "lon": 2.2995875834743646, 
            "lat": 48.85089534432583, 
            "id": 405
        }, 
        {
            "group": 3, 
            "name": "stupefied_montalcini", 
            "istrain": true, 
            "lon": 2.2935612284333207, 
            "lat": 48.862795076639316, 
            "id": 406
        }, 
        {
            "group": 3, 
            "name": "angry_lalande", 
            "istrain": false, 
            "lon": 2.281398080123839, 
            "lat": 48.863184809946084, 
            "id": 407
        }, 
        {
            "group": 3, 
            "name": "youthful_wozniak", 
            "istrain": false, 
            "lon": 2.294760171987805, 
            "lat": 48.84547028162069, 
            "id": 408
        }, 
        {
            "group": 3, 
            "name": "stoic_joliot", 
            "istrain": false, 
            "lon": 2.299840677639802, 
            "lat": 48.85681992397921, 
            "id": 409
        }, 
        {
            "group": 3, 
            "name": "eager_lewin", 
            "istrain": false, 
            "lon": 2.289485561960237, 
            "lat": 48.85724226254443, 
            "id": 410
        }, 
        {
            "group": 3, 
            "name": "elastic_panini", 
            "istrain": true, 
            "lon": 2.2898706508776314, 
            "lat": 48.855855984895626, 
            "id": 411
        }, 
        {
            "group": 3, 
            "name": "awesome_saha", 
            "istrain": false, 
            "lon": 2.2843615037969895, 
            "lat": 48.86024132449463, 
            "id": 412
        }, 
        {
            "group": 3, 
            "name": "brave_wright", 
            "istrain": true, 
            "lon": 2.2910293510915603, 
            "lat": 48.87139670655381, 
            "id": 413
        }, 
        {
            "group": 3, 
            "name": "ecstatic_heisenberg", 
            "istrain": false, 
            "lon": 2.29257436697755, 
            "lat": 48.84432082669796, 
            "id": 414
        }, 
        {
            "group": 3, 
            "name": "jolly_snyder", 
            "istrain": false, 
            "lon": 2.289696315990741, 
            "lat": 48.85203477087209, 
            "id": 415
        }, 
        {
            "group": 3, 
            "name": "tender_yonath", 
            "istrain": false, 
            "lon": 2.2968816543289563, 
            "lat": 48.863986431639354, 
            "id": 416
        }, 
        {
            "group": 3, 
            "name": "loving_northcutt", 
            "istrain": true, 
            "lon": 2.279887970422961, 
            "lat": 48.85792992387362, 
            "id": 417
        }, 
        {
            "group": 3, 
            "name": "vigorous_stallman", 
            "istrain": true, 
            "lon": 2.294799852786948, 
            "lat": 48.844138587946496, 
            "id": 418
        }, 
        {
            "group": 3, 
            "name": "sleepy_murdock", 
            "istrain": true, 
            "lon": 2.2868596303561333, 
            "lat": 48.85489980380939, 
            "id": 419
        }, 
        {
            "group": 3, 
            "name": "quizzical_hamilton", 
            "istrain": true, 
            "lon": 2.287411888886177, 
            "lat": 48.86591011883776, 
            "id": 420
        }, 
        {
            "group": 3, 
            "name": "unruffled_lewin", 
            "istrain": true, 
            "lon": 2.2912955503903, 
            "lat": 48.86483603957087, 
            "id": 421
        }, 
        {
            "group": 3, 
            "name": "gifted_shirley", 
            "istrain": true, 
            "lon": 2.3043910350489054, 
            "lat": 48.86064115860162, 
            "id": 422
        }, 
        {
            "group": 3, 
            "name": "unruffled_mclean", 
            "istrain": true, 
            "lon": 2.291635827857527, 
            "lat": 48.84413677062349, 
            "id": 423
        }, 
        {
            "group": 3, 
            "name": "happy_lumiere", 
            "istrain": false, 
            "lon": 2.2961836338511152, 
            "lat": 48.844193233588015, 
            "id": 424
        }, 
        {
            "group": 3, 
            "name": "competent_curran", 
            "istrain": false, 
            "lon": 2.294698721663435, 
            "lat": 48.865582836783865, 
            "id": 425
        }, 
        {
            "group": 3, 
            "name": "flamboyant_brahmagupta", 
            "istrain": true, 
            "lon": 2.294514602580557, 
            "lat": 48.86673069685097, 
            "id": 426
        }, 
        {
            "group": 3, 
            "name": "heuristic_perlman", 
            "istrain": true, 
            "lon": 2.283682452532894, 
            "lat": 48.862411140003594, 
            "id": 427
        }, 
        {
            "group": 3, 
            "name": "mystifying_yalow", 
            "istrain": true, 
            "lon": 2.286228276993567, 
            "lat": 48.855267982045106, 
            "id": 428
        }, 
        {
            "group": 3, 
            "name": "compassionate_ritchie", 
            "istrain": true, 
            "lon": 2.29833528610208, 
            "lat": 48.86078261426773, 
            "id": 429
        }, 
        {
            "group": 3, 
            "name": "naughty_lamarr", 
            "istrain": false, 
            "lon": 2.295315296680207, 
            "lat": 48.84515686137781, 
            "id": 430
        }, 
        {
            "group": 3, 
            "name": "amazing_morse", 
            "istrain": false, 
            "lon": 2.2895190782044064, 
            "lat": 48.85472229738061, 
            "id": 431
        }, 
        {
            "group": 3, 
            "name": "nervous_agnesi", 
            "istrain": true, 
            "lon": 2.299602144353185, 
            "lat": 48.85405105122673, 
            "id": 432
        }, 
        {
            "group": 3, 
            "name": "focused_fermat", 
            "istrain": false, 
            "lon": 2.3055803615857506, 
            "lat": 48.85574421062602, 
            "id": 433
        }, 
        {
            "group": 3, 
            "name": "compassionate_yonath", 
            "istrain": true, 
            "lon": 2.298532243578347, 
            "lat": 48.84360633344309, 
            "id": 434
        }, 
        {
            "group": 3, 
            "name": "serene_franklin", 
            "istrain": true, 
            "lon": 2.279986745807909, 
            "lat": 48.86225443034558, 
            "id": 435
        }, 
        {
            "group": 3, 
            "name": "vibrant_lamarr", 
            "istrain": true, 
            "lon": 2.281768793448303, 
            "lat": 48.857573050494025, 
            "id": 436
        }, 
        {
            "group": 3, 
            "name": "zen_goldwasser", 
            "istrain": true, 
            "lon": 2.2962680692866613, 
            "lat": 48.86168022976485, 
            "id": 437
        }, 
        {
            "group": 3, 
            "name": "unruffled_davinci", 
            "istrain": false, 
            "lon": 2.2979166072656825, 
            "lat": 48.85648286872641, 
            "id": 438
        }, 
        {
            "group": 3, 
            "name": "vibrant_morse", 
            "istrain": false, 
            "lon": 2.2821271709110422, 
            "lat": 48.85075225234407, 
            "id": 439
        }, 
        {
            "group": 3, 
            "name": "quirky_montalcini", 
            "istrain": true, 
            "lon": 2.2945544019510224, 
            "lat": 48.85611308525044, 
            "id": 440
        }, 
        {
            "group": 3, 
            "name": "adoring_bartik", 
            "istrain": false, 
            "lon": 2.2963056293058774, 
            "lat": 48.8441827268054, 
            "id": 441
        }, 
        {
            "group": 3, 
            "name": "stupefied_volhard", 
            "istrain": true, 
            "lon": 2.278785032470463, 
            "lat": 48.85807243345795, 
            "id": 442
        }, 
        {
            "group": 3, 
            "name": "musing_davinci", 
            "istrain": true, 
            "lon": 2.2943094386764002, 
            "lat": 48.86921627776658, 
            "id": 443
        }, 
        {
            "group": 3, 
            "name": "stoic_jepsen", 
            "istrain": true, 
            "lon": 2.2948523288807054, 
            "lat": 48.84681313568594, 
            "id": 444
        }, 
        {
            "group": 3, 
            "name": "stupefied_torvalds", 
            "istrain": true, 
            "lon": 2.3021419467428075, 
            "lat": 48.86324689668698, 
            "id": 445
        }, 
        {
            "group": 3, 
            "name": "amazing_mccarthy", 
            "istrain": false, 
            "lon": 2.3051668577448106, 
            "lat": 48.85578163917182, 
            "id": 446
        }, 
        {
            "group": 3, 
            "name": "jolly_wilson", 
            "istrain": true, 
            "lon": 2.2979873618558937, 
            "lat": 48.862463222908325, 
            "id": 448
        }, 
        {
            "group": 3, 
            "name": "eloquent_beaver", 
            "istrain": true, 
            "lon": 2.2930709476876823, 
            "lat": 48.87035683307036, 
            "id": 449
        }, 
        {
            "group": 3, 
            "name": "competent_sammet", 
            "istrain": true, 
            "lon": 2.3075829431673016, 
            "lat": 48.855426446672205, 
            "id": 450
        }, 
        {
            "group": 3, 
            "name": "upbeat_heyrovsky", 
            "istrain": false, 
            "lon": 2.294470233450977, 
            "lat": 48.84312230354752, 
            "id": 451
        }, 
        {
            "group": 3, 
            "name": "wonderful_mccarthy", 
            "istrain": true, 
            "lon": 2.287101123172538, 
            "lat": 48.86674993601829, 
            "id": 452
        }, 
        {
            "group": 3, 
            "name": "practical_mclean", 
            "istrain": false, 
            "lon": 2.2962329204438445, 
            "lat": 48.85827559886126, 
            "id": 453
        }, 
        {
            "group": 3, 
            "name": "sharp_austin", 
            "istrain": true, 
            "lon": 2.292681191331942, 
            "lat": 48.85856371120325, 
            "id": 454
        }, 
        {
            "group": 3, 
            "name": "focused_goodall", 
            "istrain": true, 
            "lon": 2.306300892657824, 
            "lat": 48.85836731866642, 
            "id": 455
        }, 
        {
            "group": 3, 
            "name": "eloquent_newton", 
            "istrain": true, 
            "lon": 2.2925300307594427, 
            "lat": 48.8545820935483, 
            "id": 456
        }, 
        {
            "group": 3, 
            "name": "confident_euclid", 
            "istrain": false, 
            "lon": 2.29445759686181, 
            "lat": 48.85922721069145, 
            "id": 457
        }, 
        {
            "group": 3, 
            "name": "relaxed_kowalevski", 
            "istrain": false, 
            "lon": 2.293265332909958, 
            "lat": 48.866309583698005, 
            "id": 458
        }, 
        {
            "group": 3, 
            "name": "musing_kilby", 
            "istrain": false, 
            "lon": 2.293596638622766, 
            "lat": 48.84629121239819, 
            "id": 459
        }, 
        {
            "group": 3, 
            "name": "hardcore_goldstine", 
            "istrain": false, 
            "lon": 2.2992920626154434, 
            "lat": 48.86410542834255, 
            "id": 460
        }, 
        {
            "group": 3, 
            "name": "relaxed_carson", 
            "istrain": true, 
            "lon": 2.2976338869345265, 
            "lat": 48.85988075598573, 
            "id": 461
        }, 
        {
            "group": 3, 
            "name": "clever_euclid", 
            "istrain": true, 
            "lon": 2.294245993232336, 
            "lat": 48.86970175615737, 
            "id": 462
        }, 
        {
            "group": 3, 
            "name": "compassionate_einstein", 
            "istrain": false, 
            "lon": 2.295740905429036, 
            "lat": 48.860688782709374, 
            "id": 463
        }, 
        {
            "group": 3, 
            "name": "gallant_varahamihira", 
            "istrain": true, 
            "lon": 2.286954886030825, 
            "lat": 48.85635227221063, 
            "id": 464
        }, 
        {
            "group": 3, 
            "name": "nifty_hamilton", 
            "istrain": false, 
            "lon": 2.295643746487333, 
            "lat": 48.87429196083446, 
            "id": 465
        }, 
        {
            "group": 3, 
            "name": "compassionate_bhabha", 
            "istrain": false, 
            "lon": 2.297309232473807, 
            "lat": 48.855550174418575, 
            "id": 466
        }, 
        {
            "group": 3, 
            "name": "amazing_gates", 
            "istrain": true, 
            "lon": 2.3090154483012806, 
            "lat": 48.854200369313496, 
            "id": 467
        }, 
        {
            "group": 3, 
            "name": "naughty_darwin", 
            "istrain": true, 
            "lon": 2.2850665632658886, 
            "lat": 48.85547837464663, 
            "id": 468
        }, 
        {
            "group": 3, 
            "name": "blissful_haibt", 
            "istrain": true, 
            "lon": 2.2950204682457604, 
            "lat": 48.86184952009175, 
            "id": 469
        }, 
        {
            "group": 3, 
            "name": "mystifying_galileo", 
            "istrain": false, 
            "lon": 2.306731367543247, 
            "lat": 48.85837, 
            "id": 470
        }, 
        {
            "group": 3, 
            "name": "relaxed_haibt", 
            "istrain": false, 
            "lon": 2.286144616737475, 
            "lat": 48.86844722663442, 
            "id": 471
        }, 
        {
            "group": 3, 
            "name": "hungry_borg", 
            "istrain": true, 
            "lon": 2.282131042345671, 
            "lat": 48.852593773426456, 
            "id": 472
        }, 
        {
            "group": 3, 
            "name": "brave_swartz", 
            "istrain": true, 
            "lon": 2.2895651203343452, 
            "lat": 48.85986808420178, 
            "id": 473
        }, 
        {
            "group": 3, 
            "name": "laughing_bartik", 
            "istrain": false, 
            "lon": 2.2799790391415113, 
            "lat": 48.86527033278114, 
            "id": 474
        },