[
    {
        "salle": 2, 
        "group": 4, 
        "name": "festive_elion", 
        "istrain": false, 
        "age": 18, 
        "lon": 2.339477613236974, 
        "lat": 48.87439348626578, 
        "id": 1
    }, 
    {
        "salle": 4, 
        "group": 4, 
        "name": "mystifying_archimedes", 
        "istrain": true, 
        "age": 21, 
        "lon": 2.3501304517207466, 
        "lat": 48.864680943656424, 
        "id": 2
    }, 
    {
        "salle": 5, 
        "group": 4, 
        "name": "awesome_hermann", 
        "istrain": false, 
        "age": 35, 
        "lon": 2.3314498744389773, 
        "lat": 48.87065119176951, 
        "id": 3
    }, 
    {
        "salle": 2, 
        "group": 4, 
        "name": "quizzical_yonath", 
        "istrain": true, 
        "age": 19, 
        "lon": 2.335583167113105, 
        "lat": 48.87809667471454, 
        "id": 4
    }, 
    {
        "salle": 4, 
        "group": 4, 
        "name": "flamboyant_bose", 
        "istrain": false, 
        "age": 20, 
        "lon": 2.3245200685423333, 
        "lat": 48.868748526457765, 
        "id": 5
    }, 
    {
        "salle": 5, 
        "group": 4, 
        "name": "focused_benz", 
        "istrain": false, 
        "age": 28, 
        "lon": 2.347143940157156, 
        "lat": 48.86382975077008, 
        "id": 6
    }, 
    {
        "salle": 3, 
        "group": 4, 
        "name": "festive_leakey", 
        "istrain": true, 
        "age": 21, 
        "lon": 2.316456788945748, 
        "lat": 48.85122269095898, 
        "id": 7
    }, 
    {
        "salle": 5, 
        "group": 4, 
        "name": "vigorous_poitras", 
        "istrain": false, 
        "age": 36, 
        "lon": 2.3317636331822493, 
        "lat": 48.88748396237689, 
        "id": 8
    }, 
    {
        "salle": 3, 
        "group": 4, 
        "name": "awesome_banach", 
        "istrain": false, 
        "age": 34, 
        "lon": 2.3335307244060046, 
        "lat": 48.86161603846691, 
        "id": 9
    }, 
    {
        "salle": 0, 
        "group": 4, 
        "name": "festive_snyder", 
        "istrain": true, 
        "age": 31, 
        "lon": 2.322494900271743, 
        "lat": 48.86809091227273, 
        "id": 10
    }, 
    {
        "salle": 2, 
        "group": 4, 
        "name": "adoring_archimedes", 
        "istrain": false, 
        "age": 25, 
        "lon": 2.3115227266639438, 
        "lat": 48.859255970088576, 
        "id": 13
    }, 
    {
        "salle": 5, 
        "group": 4, 
        "name": "naughty_wright", 
        "istrain": true, 
        "age": 29, 
        "lon": 2.3283390597148537, 
        "lat": 48.86912761285799, 
        "id": 14
    }, 
    {
        "salle": 5, 
        "group": 4, 
        "name": "gracious_pare", 
        "istrain": true, 
        "age": 28, 
        "lon": 2.3336098284861757, 
        "lat": 48.8705499288853, 
        "id": 16
    }, 
    {
        "salle": 3, 
        "group": 4, 
        "name": "hungry_mestorf", 
        "istrain": false, 
        "age": 18, 
        "lon": 2.3427406288896235, 
        "lat": 48.86917264620691, 
        "id": 17
    }, 
    {
        "salle": 1, 
        "group": 4, 
        "name": "nifty_leakey", 
        "istrain": true, 
        "age": 60, 
        "lon": 2.3298052758119114, 
        "lat": 48.87290541726503, 
        "id": 19
    }, 
    {
        "salle": 1, 
        "group": 4, 
        "name": "hopeful_bassi", 
        "istrain": true, 
        "age": 56, 
        "lon": 2.3411202115642977, 
        "lat": 48.874814319281526, 
        "id": 20
    }, 
    {
        "salle": 3, 
        "group": 4, 
        "name": "mystifying_jepsen", 
        "istrain": true, 
        "age": 22, 
        "lon": 2.33218217537254, 
        "lat": 48.88631595430973, 
        "id": 21
    }, 
    {
        "salle": 1, 
        "group": 4, 
        "name": "brave_kare", 
        "istrain": false, 
        "age": 22, 
        "lon": 2.3330856426201367, 
        "lat": 48.87793266431465, 
        "id": 22
    }, 
    {
        "salle": 4, 
        "group": 4, 
        "name": "lucid_euclid", 
        "istrain": true, 
        "age": 48, 
        "lon": 2.3257282888087407, 
        "lat": 48.86312823086466, 
        "id": 23
    }, 
    {
        "salle": 4, 
        "group": 4, 
        "name": "admiring_haibt", 
        "istrain": false, 
        "age": 22, 
        "lon": 2.314360938642614, 
        "lat": 48.85726041005997, 
        "id": 24
    }, 
    {
        "salle": 3, 
        "group": 4, 
        "name": "musing_newton", 
        "istrain": false, 
        "age": 32, 
        "lon": 2.333298118668057, 
        "lat": 48.879063865826204, 
        "id": 25
    }, 
    {
        "salle": 1, 
        "group": 4, 
        "name": "friendly_liskov", 
        "istrain": false, 
        "age": 24, 
        "lon": 2.3379171814769837, 
        "lat": 48.86599834522208, 
        "id": 26
    }, 
    {
        "salle": 3, 
        "group": 4, 
        "name": "vigorous_mestorf", 
        "istrain": false, 
        "age": 23, 
        "lon": 2.334617861755578, 
        "lat": 48.869191140314264, 
        "id": 27
    }, 
    {
        "salle": 2, 
        "group": 4, 
        "name": "thirsty_mcnulty", 
        "istrain": false, 
        "age": 59, 
        "lon": 2.318630747402097, 
        "lat": 48.864872492206686, 
        "id": 28
    }, 
    {
        "salle": 5, 
        "group": 4, 
        "name": "eager_wiles", 
        "istrain": true, 
        "age": 18, 
        "lon": 2.3518947880482983, 
        "lat": 48.86155774329514, 
        "id": 29
    }, 
    {
        "salle": 3, 
        "group": 4, 
        "name": "musing_perlman", 
        "istrain": true, 
        "age": 28, 
        "lon": 2.3313920688522973, 
        "lat": 48.85393089196131, 
        "id": 30
    }, 
    {
        "salle": 3, 
        "group": 4, 
        "name": "boring_goodall", 
        "istrain": true, 
        "age": 22, 
        "lon": 2.3161951799177225, 
        "lat": 48.88285184967955, 
        "id": 31
    }, 
    {
        "salle": 1, 
        "group": 4, 
        "name": "elated_meninsky", 
        "istrain": true, 
        "age": 27, 
        "lon": 2.335169524688224, 
        "lat": 48.87920630058031, 
        "id": 32
    }, 
    {
        "salle": 0, 
        "group": 4, 
        "name": "nostalgic_mclean", 
        "istrain": true, 
        "age": 25, 
        "lon": 2.3200252439263784, 
        "lat": 48.8576336882838, 
        "id": 33
    }, 
    {
        "salle": 1, 
        "group": 4, 
        "name": "stupefied_johnson", 
        "istrain": false, 
        "age": 24, 
        "lon": 2.315142651362631, 
        "lat": 48.85904127026077, 
        "id": 34
    }, 
    {
        "salle": 5, 
        "group": 4, 
        "name": "gifted_pike", 
        "istrain": false, 
        "age": 29, 
        "lon": 2.3515820488608914, 
        "lat": 48.856979556308275, 
        "id": 35
    }, 
    {
        "salle": 4, 
        "group": 4, 
        "name": "mystifying_wescoff", 
        "istrain": true, 
        "age": 27, 
        "lon": 2.312122664642404, 
        "lat": 48.85608082714076, 
        "id": 36
    }, 
    {
        "salle": 3, 
        "group": 4, 
        "name": "goofy_kilby", 
        "istrain": false, 
        "age": 26, 
        "lon": 2.3364106412680976, 
        "lat": 48.843197031088295, 
        "id": 38
    }, 
    {
        "salle": 5, 
        "group": 4, 
        "name": "suspicious_edison", 
        "istrain": true, 
        "age": 47, 
        "lon": 2.3320974299766846, 
        "lat": 48.87087322166702, 
        "id": 39
    }, 
    {
        "salle": 3, 
        "group": 4, 
        "name": "keen_kepler", 
        "istrain": true, 
        "age": 46, 
        "lon": 2.321805658260301, 
        "lat": 48.87242395523527, 
        "id": 40
    }, 
    {
        "salle": 5, 
        "group": 4, 
        "name": "elastic_khorana", 
        "istrain": false, 
        "age": 18, 
        "lon": 2.3230210769753152, 
        "lat": 48.843893095471024, 
        "id": 41
    }, 
    {
        "salle": 0, 
        "group": 4, 
        "name": "hardcore_lamport", 
        "istrain": true, 
        "age": 43, 
        "lon": 2.3350876295677416, 
        "lat": 48.8778066696379, 
        "id": 42
    }, 
    {
        "salle": 0, 
        "group": 4, 
        "name": "tender_perlman", 
        "istrain": false, 
        "age": 59, 
        "lon": 2.336854069446263, 
        "lat": 48.85841197668793, 
        "id": 44
    }, 
    {
        "salle": 5, 
        "group": 4, 
        "name": "epic_swartz", 
        "istrain": false, 
        "age": 26, 
        "lon": 2.3359368205987145, 
        "lat": 48.85500605918126, 
        "id": 45
    }, 
    {
        "salle": 4, 
        "group": 4, 
        "name": "vibrant_varahamihira", 
        "istrain": false, 
        "age": 20, 
        "lon": 2.329648549548652, 
        "lat": 48.863444969262126, 
        "id": 46
    }, 
    {
        "salle": 0, 
        "group": 4, 
        "name": "goofy_stallman", 
        "istrain": false, 
        "age": 26, 
        "lon": 2.313426966729133, 
        "lat": 48.86766092738723, 
        "id": 47
    }, 
    {
        "salle": 0, 
        "group": 4, 
        "name": "cocky_heyrovsky", 
        "istrain": true, 
        "age": 26, 
        "lon": 2.311151735268727, 
        "lat": 48.866528677453736, 
        "id": 48
    }, 
    {
        "salle": 4, 
        "group": 4, 
        "name": "objective_dijkstra", 
        "istrain": false, 
        "age": 21, 
        "lon": 2.343940645331689, 
        "lat": 48.8546816734629, 
        "id": 49
    }, 
    {
        "salle": 2, 
        "group": 4, 
        "name": "jovial_elion", 
        "istrain": false, 
        "age": 19, 
        "lon": 2.341633796999984, 
        "lat": 48.8532220493171, 
        "id": 50
    }, 
    {
        "salle": 0, 
        "group": 4, 
        "name": "happy_ritchie", 
        "istrain": true, 
        "age": 24, 
        "lon": 2.3254389286983703, 
        "lat": 48.84796039384831, 
        "id": 51
    }, 
    {
        "salle": 1, 
        "group": 4, 
        "name": "gifted_leakey", 
        "istrain": false, 
        "age": 18, 
        "lon": 2.3114841243323703, 
        "lat": 48.87087250343054, 
        "id": 52
    }, 
    {
        "salle": 3, 
        "group": 4, 
        "name": "epic_lichterman", 
        "istrain": false, 
        "age": 24, 
        "lon": 2.3321304741227458, 
        "lat": 48.86577438500997, 
        "id": 53
    }, 
    {
        "salle": 4, 
        "group": 4, 
        "name": "jolly_johnson", 
        "istrain": false, 
        "age": 46, 
        "lon": 2.3090239651639077, 
        "lat": 48.86643977090565, 
        "id": 54
    }, 
    {
        "salle": 5, 
        "group": 4, 
        "name": "stupefied_lalande", 
        "istrain": false, 
        "age": 28, 
        "lon": 2.3307317440015103, 
        "lat": 48.87288670667737, 
        "id": 55
    }, 
    {
        "salle": 5, 
        "group": 4, 
        "name": "sleepy_bohr", 
        "istrain": true, 
        "age": 28, 
        "lon": 2.3196832184846206, 
        "lat": 48.86769710862627, 
        "id": 56
    }, 
    {
        "salle": 4, 
        "group": 4, 
        "name": "pedantic_bhaskara", 
        "istrain": false, 
        "age": 29, 
        "lon": 2.334418818842712, 
        "lat": 48.88674646527405, 
        "id": 57
    }, 
    {
        "salle": 3, 
        "group": 4, 
        "name": "sharp_knuth", 
        "istrain": false, 
        "age": 21, 
        "lon": 2.339946378271072, 
        "lat": 48.86344197234404, 
        "id": 58
    }, 
    {
        "salle": 3, 
        "group": 4, 
        "name": "nervous_shockley", 
        "istrain": true, 
        "age": 21, 
        "lon": 2.346838267652014, 
        "lat": 48.86214753313882, 
        "id": 59
    }, 
    {
        "salle": 3, 
        "group": 4, 
        "name": "confident_lalande", 
        "istrain": false, 
        "age": 38, 
        "lon": 2.3427298775044574, 
        "lat": 48.867712499574665, 
        "id": 60
    }, 
    {
        "salle": 4, 
        "group": 4, 
        "name": "vigilant_wright", 
        "istrain": true, 
        "age": 35, 
        "lon": 2.3288892146067974, 
        "lat": 48.88322959193921, 
        "id": 61
    }, 
    {
        "salle": 1, 
        "group": 4, 
        "name": "elegant_shannon", 
        "istrain": false, 
        "age": 43, 
        "lon": 2.334798174088366, 
        "lat": 48.876741551929406, 
        "id": 62
    }, 
    {
        "salle": 5, 
        "group": 4, 
        "name": "hardcore_fermat", 
        "istrain": false, 
        "age": 18, 
        "lon": 2.330789388784002, 
        "lat": 48.88360674094244, 
        "id": 63
    }, 
    {
        "salle": 3, 
        "group": 4, 
        "name": "pedantic_borg", 
        "istrain": false, 
        "age": 25, 
        "lon": 2.3402542975928586, 
        "lat": 48.86944557562875, 
        "id": 64
    }, 
    {
        "salle": 5, 
        "group": 4, 
        "name": "infallible_lichterman", 
        "istrain": false, 
        "age": 27, 
        "lon": 2.3113052367967186, 
        "lat": 48.864049, 
        "id": 65
    }, 
    {
        "salle": 1, 
        "group": 4, 
        "name": "vigorous_swanson", 
        "istrain": true, 
        "age": 33, 
        "lon": 2.3272527522575888, 
        "lat": 48.86779890650102, 
        "id": 66
    }, 
    {
        "salle": 3, 
        "group": 4, 
        "name": "upbeat_cori", 
        "istrain": true, 
        "age": 25, 
        "lon": 2.333421937453542, 
        "lat": 48.86388255542868, 
        "id": 67
    }, 
    {
        "salle": 2, 
        "group": 4, 
        "name": "hungry_hugle", 
        "istrain": true, 
        "age": 19, 
        "lon": 2.3330684691005086, 
        "lat": 48.85368436657742, 
        "id": 68
    }, 
    {
        "salle": 2, 
        "group": 4, 
        "name": "sleepy_ptolemy", 
        "istrain": false, 
        "age": 28, 
        "lon": 2.3240628229144846, 
        "lat": 48.86384473351338, 
        "id": 69
    }, 
    {
        "salle": 3, 
        "group": 4, 
        "name": "vigilant_jennings", 
        "istrain": true, 
        "age": 45, 
        "lon": 2.3334321510489104, 
        "lat": 48.846412436401074, 
        "id": 70
    }, 
    {
        "salle": 4, 
        "group": 4, 
        "name": "loving_fermat", 
        "istrain": true, 
        "age": 46, 
        "lon": 2.3156233654342455, 
        "lat": 48.85768642810798, 
        "id": 71
    }, 
    {
        "salle": 0, 
        "group": 4, 
        "name": "jolly_goodall", 
        "istrain": true, 
        "age": 26, 
        "lon": 2.320535530273084, 
        "lat": 48.860983249061235, 
        "id": 72
    }, 
    {
        "salle": 3, 
        "group": 4, 
        "name": "kind_saha", 
        "istrain": false, 
        "age": 52, 
        "lon": 2.3368762944696466, 
        "lat": 48.87094316354729, 
        "id": 73
    }, 
    {
        "salle": 3, 
        "group": 4, 
        "name": "objective_jang", 
        "istrain": true, 
        "age": 26, 
        "lon": 2.3269112202362474, 
        "lat": 48.87432860245113, 
        "id": 75
    }, 
    {
        "salle": 4, 
        "group": 4, 
        "name": "frosty_kepler", 
        "istrain": false, 
        "age": 19, 
        "lon": 2.345364908533662, 
        "lat": 48.85439735717556, 
        "id": 76
    }, 
    {
        "salle": 2, 
        "group": 4, 
        "name": "elegant_spence", 
        "istrain": true, 
        "age": 50, 
        "lon": 2.330954562489224, 
        "lat": 48.88624961636056, 
        "id": 77
    }, 
    {
        "salle": 0, 
        "group": 4, 
        "name": "boring_wiles", 
        "istrain": true, 
        "age": 36, 
        "lon": 2.3368499470592274, 
        "lat": 48.858468474756485, 
        "id": 78
    }, 
    {
        "salle": 0, 
        "group": 4, 
        "name": "cranky_johnson", 
        "istrain": true, 
        "age": 27, 
        "lon": 2.332489939043099, 
        "lat": 48.86521352460196, 
        "id": 79
    }, 
    {
        "salle": 4, 
        "group": 4, 
        "name": "awesome_cray", 
        "istrain": false, 
        "age": 35, 
        "lon": 2.339186946359818, 
        "lat": 48.864309999778904, 
        "id": 80
    }, 
    {
        "salle": 0, 
        "group": 4, 
        "name": "thirsty_wing", 
        "istrain": true, 
        "age": 42, 
        "lon": 2.316938771641734, 
        "lat": 48.85997888266315, 
        "id": 81
    }, 
    {
        "salle": 2, 
        "group": 4, 
        "name": "wonderful_goldberg", 
        "istrain": false, 
        "age": 33, 
        "lon": 2.3374305616393123, 
        "lat": 48.87512903743641, 
        "id": 82
    }, 
    {
        "salle": 4, 
        "group": 4, 
        "name": "amazing_nightingale", 
        "istrain": false, 
        "age": 29, 
        "lon": 2.321552520106416, 
        "lat": 48.87542312028071, 
        "id": 83
    }, 
    {
        "salle": 4, 
        "group": 4, 
        "name": "thirsty_torvalds", 
        "istrain": true, 
        "age": 37, 
        "lon": 2.3392464016954597, 
        "lat": 48.87756396259793, 
        "id": 84
    }, 
    {
        "salle": 5, 
        "group": 4, 
        "name": "condescending_booth", 
        "istrain": true, 
        "age": 26, 
        "lon": 2.3309069702027356, 
        "lat": 48.862621205876245, 
        "id": 85
    }, 
    {
        "salle": 4, 
        "group": 4, 
        "name": "nervous_shaw", 
        "istrain": true, 
        "age": 27, 
        "lon": 2.3362754304068782, 
        "lat": 48.87267314086683, 
        "id": 86
    }, 
    {
        "salle": 3, 
        "group": 4, 
        "name": "modest_pike", 
        "istrain": false, 
        "age": 21, 
        "lon": 2.347270239681697, 
        "lat": 48.866981495151386, 
        "id": 87
    }, 
    {
        "salle": 2, 
        "group": 4, 
        "name": "elastic_lalande", 
        "istrain": false, 
        "age": 18, 
        "lon": 2.3415438559488213, 
        "lat": 48.84943342534129, 
        "id": 88
    }, 
    {
        "salle": 2, 
        "group": 4, 
        "name": "unruffled_aryabhata", 
        "istrain": true, 
        "age": 27, 
        "lon": 2.348952466735515, 
        "lat": 48.864761361676905, 
        "id": 89
    }, 
    {
        "salle": 0, 
        "group": 4, 
        "name": "musing_mirzakhani", 
        "istrain": false, 
        "age": 33, 
        "lon": 2.339291149903997, 
        "lat": 48.85933592193339, 
        "id": 90
    }, 
    {
        "salle": 2, 
        "group": 4, 
        "name": "amazing_saha", 
        "istrain": true, 
        "age": 33, 
        "lon": 2.3284310004031683, 
        "lat": 48.86496617306549, 
        "id": 91
    }, 
    {
        "salle": 0, 
        "group": 4, 
        "name": "affectionate_goldberg", 
        "istrain": true, 
        "age": 20, 
        "lon": 2.3209640817939605, 
        "lat": 48.858131884576416, 
        "id": 92
    }, 
    {
        "salle": 3, 
        "group": 4, 
        "name": "pedantic_wright", 
        "istrain": true, 
        "age": 37, 
        "lon": 2.331053, 
        "lat": 48.851992829382475, 
        "id": 93
    }, 
    {
        "salle": 1, 
        "group": 4, 
        "name": "awesome_leakey", 
        "istrain": true, 
        "age": 32, 
        "lon": 2.325463610176707, 
        "lat": 48.87708403606855, 
        "id": 94
    }, 
    {
        "salle": 2, 
        "group": 4, 
        "name": "affectionate_northcutt", 
        "istrain": false, 
        "age": 18, 
        "lon": 2.3265104547324036, 
        "lat": 48.86225621522186, 
        "id": 95
    }, 
    {
        "salle": 1, 
        "group": 4, 
        "name": "focused_mayer", 
        "istrain": true, 
        "age": 33, 
        "lon": 2.334200105943156, 
        "lat": 48.871271735523734, 
        "id": 96
    }, 
    {
        "salle": 2, 
        "group": 4, 
        "name": "brave_colden", 
        "istrain": true, 
        "age": 21, 
        "lon": 2.334807857878658, 
        "lat": 48.86747949940237, 
        "id": 97
    }, 
    {
        "salle": 2, 
        "group": 4, 
        "name": "nervous_wright", 
        "istrain": false, 
        "age": 22, 
        "lon": 2.3398563302300994, 
        "lat": 48.86179432137831, 
        "id": 98
    }, 
    {
        "salle": 5, 
        "group": 4, 
        "name": "wonderful_goodall", 
        "istrain": false, 
        "age": 42, 
        "lon": 2.3155117384444526, 
        "lat": 48.86834538502345, 
        "id": 99
    }, 
    {
        "salle": 5, 
        "group": 4, 
        "name": "angry_torvalds", 
        "istrain": false, 
        "age": 33, 
        "lon": 2.3429164903945394, 
        "lat": 48.8719753174029, 
        "id": 100
    }, 
    {
        "salle": 0, 
        "group": 4, 
        "name": "wizardly_wescoff", 
        "istrain": true, 
        "age": 40, 
        "lon": 2.3465780991713743, 
        "lat": 48.867900450335824, 
        "id": 101
    }, 
    {
        "salle": 0, 
        "group": 4, 
        "name": "cranky_booth", 
        "istrain": false, 
        "age": 48, 
        "lon": 2.335255873456915, 
        "lat": 48.86179376108809, 
        "id": 102
    }, 
    {
        "salle": 0, 
        "group": 4, 
        "name": "gracious_saha", 
        "istrain": true, 
        "age": 18, 
        "lon": 2.324540730717609, 
        "lat": 48.865823562849215, 
        "id": 103
    }, 
    {
        "salle": 1, 
        "group": 4, 
        "name": "goofy_meitner", 
        "istrain": true, 
        "age": 54, 
        "lon": 2.3087083812048266, 
        "lat": 48.87083492620888, 
        "id": 104
    }, 
    {
        "salle": 2, 
        "group": 4, 
        "name": "vigilant_hypatia", 
        "istrain": false, 
        "age": 40, 
        "lon": 2.3269719383169134, 
        "lat": 48.88134465783798, 
        "id": 105
    }, 
    {
        "salle": 3, 
        "group": 4, 
        "name": "gifted_mayer", 
        "istrain": true, 
        "age": 29, 
        "lon": 2.334580161828435, 
        "lat": 48.84721115121221, 
        "id": 106
    }, 
    {
        "salle": 0, 
        "group": 4, 
        "name": "practical_perlman", 
        "istrain": false, 
        "age": 25, 
        "lon": 2.3332328460689444, 
        "lat": 48.865681056281844, 
        "id": 107
    }, 
    {
        "salle": 5, 
        "group": 4, 
        "name": "boring_bassi", 
        "istrain": true, 
        "age": 33, 
        "lon": 2.342250612304054, 
        "lat": 48.86429405143585, 
        "id": 108
    }, 
    {
        "salle": 1, 
        "group": 4, 
        "name": "elegant_hawking", 
        "istrain": false, 
        "age": 28, 
        "lon": 2.3387703106751254, 
        "lat": 48.877696898965034, 
        "id": 109
    }, 
    {
        "salle": 0, 
        "group": 4, 
        "name": "confident_mirzakhani", 
        "istrain": true, 
        "age": 26, 
        "lon": 2.3226026833879954, 
        "lat": 48.868988038549176, 
        "id": 110
    }, 
    {
        "salle": 1, 
        "group": 4, 
        "name": "keen_jones", 
        "istrain": false, 
        "age": 43, 
        "lon": 2.3342523672189732, 
        "lat": 48.851277265435634, 
        "id": 111
    }, 
    {
        "salle": 3, 
        "group": 4, 
        "name": "amazing_jennings", 
        "istrain": false, 
        "age": 28, 
        "lon": 2.310502687325945, 
        "lat": 48.87029422633513, 
        "id": 112
    }, 
    {
        "salle": 4, 
        "group": 4, 
        "name": "relaxed_swirles", 
        "istrain": false, 
        "age": 26, 
        "lon": 2.3292203593715546, 
        "lat": 48.8610194096751, 
        "id": 113
    }, 
    {
        "salle": 0, 
        "group": 4, 
        "name": "confident_stonebraker", 
        "istrain": false, 
        "age": 25, 
        "lon": 2.33360238447236, 
        "lat": 48.875071023191, 
        "id": 115
    }, 
    {
        "salle": 3, 
        "group": 4, 
        "name": "focused_hawking", 
        "istrain": false, 
        "age": 22, 
        "lon": 2.345084362307354, 
        "lat": 48.86772797639889, 
        "id": 116
    }, 
    {
        "salle": 1, 
        "group": 4, 
        "name": "wonderful_ride", 
        "istrain": false, 
        "age": 21, 
        "lon": 2.332494911033442, 
        "lat": 48.85715650692336, 
        "id": 117
    }, 
    {
        "salle": 5, 
        "group": 4, 
        "name": "agitated_meninsky", 
        "istrain": true, 
        "age": 26, 
        "lon": 2.3426834713916165, 
        "lat": 48.87337887686587, 
        "id": 118
    }, 
    {
        "salle": 0, 
        "group": 4, 
        "name": "gallant_mcnulty", 
        "istrain": true, 
        "age": 25, 
        "lon": 2.3290572668782827, 
        "lat": 48.844614029757096, 
        "id": 119
    }, 
    {
        "salle": 5, 
        "group": 4, 
        "name": "reverent_lumiere", 
        "istrain": false, 
        "age": 19, 
        "lon": 2.330360461961328, 
        "lat": 48.86566280898679, 
        "id": 120
    }, 
    {
        "salle": 2, 
        "group": 4, 
        "name": "focused_keller", 
        "istrain": true, 
        "age": 23, 
        "lon": 2.336631545027376, 
        "lat": 48.878250027587285, 
        "id": 121
    }, 
    {
        "salle": 2, 
        "group": 4, 
        "name": "cocky_hopper", 
        "istrain": false, 
        "age": 26, 
        "lon": 2.3170933575456325, 
        "lat": 48.86242890362074, 
        "id": 122
    }, 
    {
        "salle": 4, 
        "group": 4, 
        "name": "practical_jackson", 
        "istrain": false, 
        "age": 28, 
        "lon": 2.3385599458648554, 
        "lat": 48.84990149403845, 
        "id": 123
    }, 
    {
        "salle": 0, 
        "group": 4, 
        "name": "clever_heisenberg", 
        "istrain": true, 
        "age": 36, 
        "lon": 2.3162211774547203, 
        "lat": 48.87196441984653, 
        "id": 124
    }, 
    {
        "salle": 2, 
        "group": 4, 
        "name": "frosty_noyce", 
        "istrain": true, 
        "age": 20, 
        "lon": 2.3325481428028643, 
        "lat": 48.888229595360826, 
        "id": 125
    }, 
    {
        "salle": 0, 
        "group": 4, 
        "name": "tender_mirzakhani", 
        "istrain": false, 
        "age": 18, 
        "lon": 2.3324224045000146, 
        "lat": 48.85834790734376, 
        "id": 126
    }, 
    {
        "salle": 2, 
        "group": 4, 
        "name": "xenodochial_sinoussi", 
        "istrain": false, 
        "age": 24, 
        "lon": 2.326304262969245, 
        "lat": 48.873002965037465, 
        "id": 127
    }, 
    {
        "salle": 5, 
        "group": 4, 
        "name": "gracious_thompson", 
        "istrain": false, 
        "age": 41, 
        "lon": 2.3325997903822318, 
        "lat": 48.87439810547885, 
        "id": 128
    }, 
    {
        "salle": 4, 
        "group": 4, 
        "name": "stupefied_brown", 
        "istrain": true, 
        "age": 48, 
        "lon": 2.3284995778637145, 
        "lat": 48.845832107761105, 
        "id": 129
    }, 
    {
        "salle": 4, 
        "group": 4, 
        "name": "xenodochial_poincare", 
        "istrain": false, 
        "age": 36, 
        "lon": 2.3321419386225877, 
        "lat": 48.87548906105183, 
        "id": 130
    }, 
    {
        "salle": 3, 
        "group": 4, 
        "name": "frosty_lichterman", 
        "istrain": false, 
        "age": 23, 
        "lon": 2.3234254523054063, 
        "lat": 48.87652667366108, 
        "id": 131
    }, 
    {
        "salle": 2, 
        "group": 4, 
        "name": "frosty_bose", 
        "istrain": true, 
        "age": 18, 
        "lon": 2.313082749739999, 
        "lat": 48.85205859187812, 
        "id": 132
    }, 
    {
        "salle": 1, 
        "group": 4, 
        "name": "dazzling_jang", 
        "istrain": false, 
        "age": 18, 
        "lon": 2.3314232567483613, 
        "lat": 48.85449141772547, 
        "id": 133
    }, 
    {
        "salle": 0, 
        "group": 4, 
        "name": "confident_mclean", 
        "istrain": false, 
        "age": 53, 
        "lon": 2.3381804750094766, 
        "lat": 48.86615224231162, 
        "id": 134
    }, 
    {
        "salle": 5, 
        "group": 4, 
        "name": "distracted_hawking", 
        "istrain": false, 
        "age": 40, 
        "lon": 2.331086233796949, 
        "lat": 48.87692796272941, 
        "id": 135
    }, 
    {
        "salle": 4, 
        "group": 4, 
        "name": "inspiring_ride", 
        "istrain": false, 
        "age": 60, 
        "lon": 2.336665524063287, 
        "lat": 48.86702752908747, 
        "id": 136
    }, 
    {
        "salle": 2, 
        "group": 4, 
        "name": "compassionate_kalam", 
        "istrain": true, 
        "age": 44, 
        "lon": 2.329037986933639, 
        "lat": 48.851496680677535, 
        "id": 137
    }, 
    {
        "salle": 2, 
        "group": 4, 
        "name": "mystifying_babbage", 
        "istrain": true, 
        "age": 37, 
        "lon": 2.324439357059895, 
        "lat": 48.8664253707851, 
        "id": 138
    }, 
    {
        "salle": 1, 
        "group": 4, 
        "name": "jovial_leakey", 
        "istrain": true, 
        "age": 18, 
        "lon": 2.3144101891062108, 
        "lat": 48.857675198931865, 
        "id": 139
    }, 
    {
        "salle": 0, 
        "group": 4, 
        "name": "frosty_nobel", 
        "istrain": true, 
        "age": 34, 
        "lon": 2.3435615845834614, 
        "lat": 48.86339721099926, 
        "id": 140
    }, 
    {
        "salle": 5, 
        "group": 4, 
        "name": "affectionate_ritchie", 
        "istrain": true, 
        "age": 26, 
        "lon": 2.3461684960914084, 
        "lat": 48.86661591644297, 
        "id": 141
    }, 
    {
        "salle": 2, 
        "group": 4, 
        "name": "vigilant_jang", 
        "istrain": true, 
        "age": 39, 
        "lon": 2.3218541202502645, 
        "lat": 48.86711435894225, 
        "id": 142
    }, 
    {
        "salle": 1, 
        "group": 4, 
        "name": "kind_johnson", 
        "istrain": true, 
        "age": 59, 
        "lon": 2.338343396652852, 
        "lat": 48.86446645375768, 
        "id": 143
    }, 
    {
        "salle": 5, 
        "group": 4, 
        "name": "kind_fermi", 
        "istrain": false, 
        "age": 63, 
        "lon": 2.3338230032952643, 
        "lat": 48.862296545227665, 
        "id": 144
    }, 
    {
        "salle": 2, 
        "group": 4, 
        "name": "reverent_hamilton", 
        "istrain": false, 
        "age": 27, 
        "lon": 2.3242533495455926, 
        "lat": 48.854924951170226, 
        "id": 145
    }, 
    {
        "salle": 2, 
        "group": 4, 
        "name": "competent_goldstine", 
        "istrain": true, 
        "age": 18, 
        "lon": 2.3276085048348434, 
        "lat": 48.86837045175433, 
        "id": 146
    }, 
    {
        "salle": 0, 
        "group": 4, 
        "name": "hungry_kilby", 
        "istrain": true, 
        "age": 33, 
        "lon": 2.32607146879788, 
        "lat": 48.86421818629665, 
        "id": 147
    }, 
    {
        "salle": 4, 
        "group": 4, 
        "name": "eager_feynman", 
        "istrain": true, 
        "age": 24, 
        "lon": 2.3213822552524066, 
        "lat": 48.87391066503041, 
        "id": 148
    }, 
    {
        "salle": 5, 
        "group": 4, 
        "name": "unruffled_curran", 
        "istrain": false, 
        "age": 18, 
        "lon": 2.3327933765352458, 
        "lat": 48.856323771838596, 
        "id": 149
    }, 
    {
        "salle": 3, 
        "group": 4, 
        "name": "compassionate_newton", 
        "istrain": false, 
        "age": 25, 
        "lon": 2.339533173079171, 
        "lat": 48.86021410058325, 
        "id": 150
    }, 
    {
        "salle": 1, 
        "group": 4, 
        "name": "loving_kowalevski", 
        "istrain": false, 
        "age": 19, 
        "lon": 2.3201492119542344, 
        "lat": 48.874966412442745, 
        "id": 151
    }, 
    {
        "salle": 0, 
        "group": 4, 
        "name": "vibrant_ardinghelli", 
        "istrain": true, 
        "age": 24, 
        "lon": 2.321656794813828, 
        "lat": 48.86277115375894, 
        "id": 152
    }, 
    {
        "salle": 1, 
        "group": 4, 
        "name": "gallant_dijkstra", 
        "istrain": false, 
        "age": 31, 
        "lon": 2.3313157585333393, 
        "lat": 48.87808463375938, 
        "id": 153
    }, 
    {
        "salle": 0, 
        "group": 4, 
        "name": "dazzling_engelbart", 
        "istrain": true, 
        "age": 25, 
        "lon": 2.322355519755145, 
        "lat": 48.872670297836, 
        "id": 154
    }, 
    {
        "salle": 3, 
        "group": 4, 
        "name": "tender_mayer", 
        "istrain": false, 
        "age": 58, 
        "lon": 2.3192971087593217, 
        "lat": 48.88141221827759, 
        "id": 155
    }, 
    {
        "salle": 4, 
        "group": 4, 
        "name": "lucid_booth", 
        "istrain": true, 
        "age": 31, 
        "lon": 2.3273499541293368, 
        "lat": 48.84872697390624, 
        "id": 156
    }, 
    {
        "salle": 2, 
        "group": 4, 
        "name": "pedantic_archimedes", 
        "istrain": false, 
        "age": 30, 
        "lon": 2.3217347701063766, 
        "lat": 48.849703064866226, 
        "id": 157
    }, 
    {
        "salle": 3, 
        "group": 4, 
        "name": "lucid_stallman", 
        "istrain": true, 
        "age": 19, 
        "lon": 2.326168585111998, 
        "lat": 48.862921837926955, 
        "id": 158
    }, 
    {
        "salle": 3, 
        "group": 4, 
        "name": "serene_perlman", 
        "istrain": false, 
        "age": 20, 
        "lon": 2.3299216712662347, 
        "lat": 48.885958653953345, 
        "id": 159
    }, 
    {
        "salle": 5, 
        "group": 4, 
        "name": "boring_babbage", 
        "istrain": false, 
        "age": 59, 
        "lon": 2.317193966808396, 
        "lat": 48.85521891382735, 
        "id": 160
    }, 
    {
        "salle": 3, 
        "group": 4, 
        "name": "friendly_boyd", 
        "istrain": false, 
        "age": 25, 
        "lon": 2.311893955556103, 
        "lat": 48.850237960086034, 
        "id": 161
    }, 
    {
        "salle": 5, 
        "group": 4, 
        "name": "gallant_sammet", 
        "istrain": false, 
        "age": 48, 
        "lon": 2.333623687020398, 
        "lat": 48.86707671230619, 
        "id": 162
    }, 
    {
        "salle": 1, 
        "group": 4, 
        "name": "gifted_haibt", 
        "istrain": true, 
        "age": 55, 
        "lon": 2.345066250696346, 
        "lat": 48.866953259931286, 
        "id": 163
    }, 
    {
        "salle": 4, 
        "group": 4, 
        "name": "jovial_banach", 
        "istrain": true, 
        "age": 18, 
        "lon": 2.339831142033396, 
        "lat": 48.858611584482624, 
        "id": 164
    }, 
    {
        "salle": 4, 
        "group": 4, 
        "name": "nervous_noether", 
        "istrain": true, 
        "age": 24, 
        "lon": 2.3357577125011724, 
        "lat": 48.85855479554975, 
        "id": 165
    }, 
    {
        "salle": 5, 
        "group": 4, 
        "name": "pensive_lichterman", 
        "istrain": false, 
        "age": 18, 
        "lon": 2.33128422444745, 
        "lat": 48.86015002040878, 
        "id": 166
    }, 
    {
        "salle": 5, 
        "group": 4, 
        "name": "inspiring_austin", 
        "istrain": false, 
        "age": 19, 
        "lon": 2.344541410729482, 
        "lat": 48.85405111124909, 
        "id": 167
    }, 
    {
        "salle": 2, 
        "group": 4, 
        "name": "nervous_bassi", 
        "istrain": false, 
        "age": 27, 
        "lon": 2.32398222151536, 
        "lat": 48.846898849934526, 
        "id": 168
    }, 
    {
        "salle": 1, 
        "group": 4, 
        "name": "pedantic_keller", 
        "istrain": false, 
        "age": 20, 
        "lon": 2.3280834421129044, 
        "lat": 48.86330929197544, 
        "id": 169
    }, 
    {
        "salle": 0, 
        "group": 4, 
        "name": "epic_curran", 
        "istrain": false, 
        "age": 44, 
        "lon": 2.340869934173735, 
        "lat": 48.860196348470645, 
        "id": 170
    }, 
    {
        "salle": 0, 
        "group": 4, 
        "name": "determined_sinoussi", 
        "istrain": false, 
        "age": 38, 
        "lon": 2.344540450849763, 
        "lat": 48.863435297621685, 
        "id": 171
    }, 
    {
        "salle": 2, 
        "group": 4, 
        "name": "awesome_kalam", 
        "istrain": true, 
        "age": 18, 
        "lon": 2.3132636703309193, 
        "lat": 48.865667975916686, 
        "id": 172
    }, 
    {
        "salle": 2, 
        "group": 4, 
        "name": "vigorous_curran", 
        "istrain": false, 
        "age": 33, 
        "lon": 2.3231531922654693, 
        "lat": 48.86794281509302, 
        "id": 173
    }, 
    {
        "salle": 5, 
        "group": 4, 
        "name": "jovial_golick", 
        "istrain": true, 
        "age": 21, 
        "lon": 2.329334531394059, 
        "lat": 48.881877502439536, 
        "id": 174
    }, 
    {
        "salle": 1, 
        "group": 4, 
        "name": "wizardly_visvesvaraya", 
        "istrain": true, 
        "age": 32, 
        "lon": 2.3421277904062765, 
        "lat": 48.85533610463498, 
        "id": 175
    }, 
    {
        "salle": 1, 
        "group": 4, 
        "name": "thirsty_goldberg", 
        "istrain": true, 
        "age": 42, 
        "lon": 2.339249268996623, 
        "lat": 48.86156277689204, 
        "id": 176
    }, 
    {
        "salle": 5, 
        "group": 4, 
        "name": "pedantic_mcnulty", 
        "istrain": false, 
        "age": 27, 
        "lon": 2.3445371764363037, 
        "lat": 48.861350616840944, 
        "id": 177
    }, 
    {
        "salle": 2, 
        "group": 4, 
        "name": "keen_pike", 
        "istrain": false, 
        "age": 38, 
        "lon": 2.343621329416958, 
        "lat": 48.872149136685934, 
        "id": 178
    }, 
    {
        "salle": 3, 
        "group": 4, 
        "name": "quirky_lewin", 
        "istrain": true, 
        "age": 20, 
        "lon": 2.3306663236964233, 
        "lat": 48.866259939879136, 
        "id": 179
    }, 
    {
        "salle": 4, 
        "group": 4, 
        "name": "stupefied_hamilton", 
        "istrain": true, 
        "age": 39, 
        "lon": 2.334800546904265, 
        "lat": 48.84744664359536, 
        "id": 180
    }, 
    {
        "salle": 4, 
        "group": 4, 
        "name": "silly_kilby", 
        "istrain": true, 
        "age": 47, 
        "lon": 2.352799972248472, 
        "lat": 48.8609617285588, 
        "id": 181
    }, 
    {
        "salle": 3, 
        "group": 4, 
        "name": "boring_lovelace", 
        "istrain": true, 
        "age": 21, 
        "lon": 2.3429179247869243, 
        "lat": 48.85872327628723, 
        "id": 182
    }, 
    {
        "salle": 4, 
        "group": 4, 
        "name": "cranky_hypatia", 
        "istrain": true, 
        "age": 41, 
        "lon": 2.3360492183562793, 
        "lat": 48.87640057827858, 
        "id": 183
    }, 
    {
        "salle": 0, 
        "group": 4, 
        "name": "thirsty_albattani", 
        "istrain": true, 
        "age": 19, 
        "lon": 2.350691428526887, 
        "lat": 48.85390855394895, 
        "id": 184
    }, 
    {
        "salle": 1, 
        "group": 4, 
        "name": "kind_euler", 
        "istrain": true, 
        "age": 33, 
        "lon": 2.326404844921085, 
        "lat": 48.86024265822838, 
        "id": 185
    }, 
    {
        "salle": 0, 
        "group": 4, 
        "name": "pedantic_minsky", 
        "istrain": false, 
        "age": 27, 
        "lon": 2.3157335193827993, 
        "lat": 48.864064001750215, 
        "id": 186
    }, 
    {
        "salle": 1, 
        "group": 4, 
        "name": "friendly_curie", 
        "istrain": true, 
        "age": 27, 
        "lon": 2.311657462705076, 
        "lat": 48.86323178457302, 
        "id": 187
    }, 
    {
        "salle": 2, 
        "group": 4, 
        "name": "quizzical_kowalevski", 
        "istrain": false, 
        "age": 20, 
        "lon": 2.3301488887954003, 
        "lat": 48.856875804674424, 
        "id": 188
    }, 
    {
        "salle": 1, 
        "group": 4, 
        "name": "jolly_jennings", 
        "istrain": true, 
        "age": 18, 
        "lon": 2.328842465683554, 
        "lat": 48.85129672352913, 
        "id": 189
    }, 
    {
        "salle": 5, 
        "group": 4, 
        "name": "practical_hermann", 
        "istrain": true, 
        "age": 18, 
        "lon": 2.3353808216448426, 
        "lat": 48.87166998988406, 
        "id": 190
    }, 
    {
        "salle": 1, 
        "group": 4, 
        "name": "ecstatic_colden", 
        "istrain": true, 
        "age": 28, 
        "lon": 2.3466612115423047, 
        "lat": 48.86364693564403, 
        "id": 191
    }, 
    {
        "salle": 1, 
        "group": 4, 
        "name": "unruffled_beaver", 
        "istrain": false, 
        "age": 22, 
        "lon": 2.3321734089687642, 
        "lat": 48.868110553553876, 
        "id": 192
    }, 
    {
        "salle": 3, 
        "group": 4, 
        "name": "epic_rosalind", 
        "istrain": false, 
        "age": 55, 
        "lon": 2.3509160310107386, 
        "lat": 48.86710234860911, 
        "id": 193
    }, 
    {
        "salle": 0, 
        "group": 4, 
        "name": "clever_fermat", 
        "istrain": false, 
        "age": 20, 
        "lon": 2.3318512867532535, 
        "lat": 48.87472426305727, 
        "id": 194
    }, 
    {
        "salle": 3, 
        "group": 4, 
        "name": "sleepy_pare", 
        "istrain": false, 
        "age": 38, 
        "lon": 2.3482966737364936, 
        "lat": 48.85651737860962, 
        "id": 195
    }, 
    {
        "salle": 3, 
        "group": 4, 
        "name": "confident_carson", 
        "istrain": true, 
        "age": 28, 
        "lon": 2.3439845749872115, 
        "lat": 48.86594822617021, 
        "id": 196
    }, 
    {
        "salle": 4, 
        "group": 4, 
        "name": "zealous_mayer", 
        "istrain": true, 
        "age": 26, 
        "lon": 2.3150102170775115, 
        "lat": 48.86501322172353, 
        "id": 197
    }, 
    {
        "salle": 2, 
        "group": 4, 
        "name": "hardcore_wescoff", 
        "istrain": false, 
        "age": 42, 
        "lon": 2.3428806306290277, 
        "lat": 48.85356415980837, 
        "id": 198
    }, 
    {
        "salle": 0, 
        "group": 4, 
        "name": "vigorous_stonebraker", 
        "istrain": false, 
        "age": 19, 
        "lon": 2.3327215307470848, 
        "lat": 48.86326274327522, 
        "id": 199
    }, 
    {
        "salle": 2, 
        "group": 4, 
        "name": "inspiring_payne", 
        "istrain": false, 
        "age": 30, 
        "lon": 2.3152804264478886, 
        "lat": 48.857247301955304, 
        "id": 200
    }, 
    {
        "salle": 4, 
        "group": 4, 
        "name": "musing_shirley", 
        "istrain": true, 
        "age": 21, 
        "lon": 2.3283514531938785, 
        "lat": 48.842438048088304, 
        "id": 201
    }, 
    {
        "salle": 5, 
        "group": 4, 
        "name": "tender_northcutt", 
        "istrain": true, 
        "age": 30, 
        "lon": 2.337833453177472, 
        "lat": 48.85579383019353, 
        "id": 202
    }, 
    {
        "salle": 2, 
        "group": 4, 
        "name": "zen_ardinghelli", 
        "istrain": true, 
        "age": 18, 
        "lon": 2.3125795438983583, 
        "lat": 48.86389824100156, 
        "id": 203
    }, 
    {
        "salle": 5, 
        "group": 4, 
        "name": "clever_liskov", 
        "istrain": false, 
        "age": 37, 
        "lon": 2.3311144456923696, 
        "lat": 48.86379664858617, 
        "id": 204
    }, 
    {
        "salle": 3, 
        "group": 4, 
        "name": "hopeful_shaw", 
        "istrain": false, 
        "age": 31, 
        "lon": 2.3251675017391706, 
        "lat": 48.87045045358582, 
        "id": 205
    }, 
    {
        "salle": 2, 
        "group": 4, 
        "name": "zealous_knuth", 
        "istrain": false, 
        "age": 32, 
        "lon": 2.3246155152304513, 
        "lat": 48.866378992016664, 
        "id": 206
    }, 
    {
        "salle": 3, 
        "group": 4, 
        "name": "relaxed_lalande", 
        "istrain": false, 
        "age": 20, 
        "lon": 2.3076969658868576, 
        "lat": 48.85821277570355, 
        "id": 207
    }, 
    {
        "salle": 3, 
        "group": 4, 
        "name": "awesome_goldwasser", 
        "istrain": false, 
        "age": 21, 
        "lon": 2.333044341739458, 
        "lat": 48.85460730601184, 
        "id": 208
    }, 
    {
        "salle": 5, 
        "group": 4, 
        "name": "lucid_chandrasekhar", 
        "istrain": false, 
        "age": 33, 
        "lon": 2.3227898785623795, 
        "lat": 48.87105803627765, 
        "id": 211
    }, 
    {
        "salle": 3, 
        "group": 4, 
        "name": "gifted_roentgen", 
        "istrain": true, 
        "age": 23, 
        "lon": 2.324502759189687, 
        "lat": 48.86099407530772, 
        "id": 212
    }, 
    {
        "salle": 1, 
        "group": 4, 
        "name": "kind_haibt", 
        "istrain": false, 
        "age": 34, 
        "lon": 2.3202839983497023, 
        "lat": 48.8807995140913, 
        "id": 213
    }, 
    {
        "salle": 5, 
        "group": 4, 
        "name": "reverent_keller", 
        "istrain": false, 
        "age": 20, 
        "lon": 2.3246072239792985, 
        "lat": 48.86511502056448, 
        "id": 214
    }, 
    {
        "salle": 5, 
        "group": 4, 
        "name": "wizardly_spence", 
        "istrain": true, 
        "age": 52, 
        "lon": 2.315760663311812, 
        "lat": 48.861598639252584, 
        "id": 216
    }, 
    {
        "salle": 0, 
        "group": 4, 
        "name": "peaceful_swanson", 
        "istrain": false, 
        "age": 34, 
        "lon": 2.3530041427135577, 
        "lat": 48.864049, 
        "id": 217
    }, 
    {
        "salle": 3, 
        "group": 4, 
        "name": "mystifying_kirch", 
        "istrain": true, 
        "age": 21, 
        "lon": 2.3351795741358443, 
        "lat": 48.865274604798124, 
        "id": 218
    }, 
    {
        "salle": 5, 
        "group": 4, 
        "name": "reverent_visvesvaraya", 
        "istrain": false, 
        "age": 41, 
        "lon": 2.31204525755325, 
        "lat": 48.860967800989116, 
        "id": 219
    }, 
    {
        "salle": 1, 
        "group": 4, 
        "name": "condescending_stallman", 
        "istrain": false, 
        "age": 54, 
        "lon": 2.3296124778582663, 
        "lat": 48.84545435025115, 
        "id": 220
    }, 
    {
        "salle": 0, 
        "group": 4, 
        "name": "optimistic_chandrasekhar", 
        "istrain": false, 
        "age": 23, 
        "lon": 2.334221453508826, 
        "lat": 48.88399982516211, 
        "id": 221
    }, 
    {
        "salle": 2, 
        "group": 4, 
        "name": "festive_kare", 
        "istrain": true, 
        "age": 31, 
        "lon": 2.3283608801408273, 
        "lat": 48.85642664301767, 
        "id": 222
    }, 
    {
        "salle": 2, 
        "group": 4, 
        "name": "awesome_jepsen", 
        "istrain": false, 
        "age": 21, 
        "lon": 2.337181443354871, 
        "lat": 48.85730098584945, 
        "id": 223
    }, 
    {
        "salle": 2, 
        "group": 4, 
        "name": "wizardly_hamilton", 
        "istrain": true, 
        "age": 19, 
        "lon": 2.3304398178009906, 
        "lat": 48.840934466985765, 
        "id": 224
    }, 
    {
        "salle": 1, 
        "group": 4, 
        "name": "jovial_visvesvaraya", 
        "istrain": true, 
        "age": 26, 
        "lon": 2.3290160685297976, 
        "lat": 48.87113716072558, 
        "id": 225
    }, 
    {
        "salle": 0, 
        "group": 4, 
        "name": "pedantic_franklin", 
        "istrain": false, 
        "age": 29, 
        "lon": 2.344035051068417, 
        "lat": 48.8708953704171, 
        "id": 226
    }, 
    {
        "salle": 5, 
        "group": 4, 
        "name": "elated_kowalevski", 
        "istrain": false, 
        "age": 18, 
        "lon": 2.3257998588492654, 
        "lat": 48.88468680779044, 
        "id": 227
    }, 
    {
        "salle": 2, 
        "group": 4, 
        "name": "angry_heisenberg", 
        "istrain": false, 
        "age": 19, 
        "lon": 2.345591286321914, 
        "lat": 48.86137657957001, 
        "id": 228
    }, 
    {
        "salle": 3, 
        "group": 4, 
        "name": "clever_blackwell", 
        "istrain": true, 
        "age": 19, 
        "lon": 2.3272388744379318, 
        "lat": 48.85364018887434, 
        "id": 229
    }, 
    {
        "salle": 1, 
        "group": 4, 
        "name": "suspicious_poitras", 
        "istrain": true, 
        "age": 29, 
        "lon": 2.3310585440952236, 
        "lat": 48.85222629044829, 
        "id": 230
    }, 
    {
        "salle": 4, 
        "group": 4, 
        "name": "gifted_boyd", 
        "istrain": false, 
        "age": 34, 
        "lon": 2.3445472507350207, 
        "lat": 48.85814362550366, 
        "id": 231
    }, 
    {
        "salle": 5, 
        "group": 4, 
        "name": "admiring_benz", 
        "istrain": true, 
        "age": 42, 
        "lon": 2.3302234784632594, 
        "lat": 48.86417296698872, 
        "id": 232
    }, 
    {
        "salle": 1, 
        "group": 4, 
        "name": "eloquent_hawking", 
        "istrain": false, 
        "age": 42, 
        "lon": 2.3332476662720065, 
        "lat": 48.87039743147192, 
        "id": 233
    }, 
    {
        "salle": 0, 
        "group": 4, 
        "name": "frosty_bassi", 
        "istrain": true, 
        "age": 55, 
        "lon": 2.3390833465624477, 
        "lat": 48.8561788230535, 
        "id": 234
    }, 
    {
        "salle": 4, 
        "group": 4, 
        "name": "hopeful_ramanujan", 
        "istrain": false, 
        "age": 27, 
        "lon": 2.326429036454668, 
        "lat": 48.8659738759301, 
        "id": 235
    }, 
    {
        "salle": 3, 
        "group": 4, 
        "name": "dreamy_leavitt", 
        "istrain": false, 
        "age": 31, 
        "lon": 2.31088851415261, 
        "lat": 48.86110197276127, 
        "id": 236
    }, 
    {
        "salle": 4, 
        "group": 4, 
        "name": "quizzical_stallman", 
        "istrain": true, 
        "age": 22, 
        "lon": 2.3279108571623146, 
        "lat": 48.863465190272485, 
        "id": 237
    }, 
    {
        "salle": 4, 
        "group": 4, 
        "name": "zen_kowalevski", 
        "istrain": true, 
        "age": 24, 
        "lon": 2.3235749603797715, 
        "lat": 48.848783709726554, 
        "id": 238
    }, 
    {
        "salle": 2, 
        "group": 4, 
        "name": "vigilant_roentgen", 
        "istrain": true, 
        "age": 24, 
        "lon": 2.331289351549731, 
        "lat": 48.885250546505816, 
        "id": 239
    }, 
    {
        "salle": 3, 
        "group": 4, 
        "name": "vigilant_hoover", 
        "istrain": true, 
        "age": 24, 
        "lon": 2.313841882569637, 
        "lat": 48.86176601997378, 
        "id": 240
    }, 
    {
        "salle": 1, 
        "group": 4, 
        "name": "reverent_bose", 
        "istrain": true, 
        "age": 52, 
        "lon": 2.3337570540935495, 
        "lat": 48.85796402245431, 
        "id": 241
    }, 
    {
        "salle": 0, 
        "group": 4, 
        "name": "affectionate_newton", 
        "istrain": true, 
        "age": 18, 
        "lon": 2.3437740051983678, 
        "lat": 48.86841773493059, 
        "id": 242
    }, 
    {
        "salle": 4, 
        "group": 4, 
        "name": "musing_visvesvaraya", 
        "istrain": true, 
        "age": 35, 
        "lon": 2.352988926627154, 
        "lat": 48.86196287265754, 
        "id": 243
    }, 
    {
        "salle": 4, 
        "group": 4, 
        "name": "nostalgic_payne", 
        "istrain": true, 
        "age": 22, 
        "lon": 2.3408318266693646, 
        "lat": 48.86338424914352, 
        "id": 244
    }, 
    {
        "salle": 1, 
        "group": 4, 
        "name": "lucid_neumann", 
        "istrain": false, 
        "age": 20, 
        "lon": 2.341494682197863, 
        "lat": 48.86277000859795, 
        "id": 245
    }, 
    {
        "salle": 0, 
        "group": 4, 
        "name": "elegant_aryabhata", 
        "istrain": true, 
        "age": 31, 
        "lon": 2.328305298970578, 
        "lat": 48.84536386577733, 
        "id": 246
    }, 
    {
        "salle": 5, 
        "group": 4, 
        "name": "angry_williams", 
        "istrain": true, 
        "age": 21, 
        "lon": 2.341631830710868, 
        "lat": 48.85935997217989, 
        "id": 247
    }, 
    {
        "salle": 2, 
        "group": 4, 
        "name": "determined_brahmagupta", 
        "istrain": false, 
        "age": 58, 
        "lon": 2.3261479627945434, 
        "lat": 48.86523619727453, 
        "id": 248
    }, 
    {
        "salle": 3, 
        "group": 4, 
        "name": "heuristic_dijkstra", 
        "istrain": false, 
        "age": 18, 
        "lon": 2.329620859886602, 
        "lat": 48.864512132305194, 
        "id": 249
    }, 
    {
        "salle": 4, 
        "group": 4, 
        "name": "naughty_fermat", 
        "istrain": true, 
        "age": 24, 
        "lon": 2.330318075402721, 
        "lat": 48.8579100123892, 
        "id": 250
    }, 
    {
        "salle": 0, 
        "group": 4, 
        "name": "mystifying_dubinsky", 
        "istrain": false, 
        "age": 26, 
        "lon": 2.3421758743694037, 
        "lat": 48.858039574610274, 
        "id": 251
    }, 
    {
        "salle": 1, 
        "group": 4, 
        "name": "priceless_kilby", 
        "istrain": false, 
        "age": 18, 
        "lon": 2.315511234392, 
        "lat": 48.86025923252363, 
        "id": 252
    }, 
    {
        "salle": 1, 
        "group": 4, 
        "name": "jovial_jepsen", 
        "istrain": true, 
        "age": 23, 
        "lon": 2.338556020097714, 
        "lat": 48.86548700606045, 
        "id": 253
    }, 
    {
        "salle": 2, 
        "group": 4, 
        "name": "wonderful_payne", 
        "istrain": true, 
        "age": 32, 
        "lon": 2.3288224148432493, 
        "lat": 48.875379583127746, 
        "id": 254
    }, 
    {
        "salle": 3, 
        "group": 4, 
        "name": "adoring_poincare", 
        "istrain": false, 
        "age": 18, 
        "lon": 2.316133605974193, 
        "lat": 48.866072477891024, 
        "id": 255
    }, 
    {
        "salle": 3, 
        "group": 4, 
        "name": "vibrant_bose", 
        "istrain": false, 
        "age": 31, 
        "lon": 2.3459238525778967, 
        "lat": 48.859591043178284, 
        "id": 256
    }, 
    {
        "salle": 2, 
        "group": 4, 
        "name": "pensive_mirzakhani", 
        "istrain": true, 
        "age": 22, 
        "lon": 2.3369082575973597, 
        "lat": 48.878572399860694, 
        "id": 257
    }, 
    {
        "salle": 5, 
        "group": 4, 
        "name": "jovial_jennings", 
        "istrain": true, 
        "age": 24, 
        "lon": 2.324910189349301, 
        "lat": 48.85544649449485, 
        "id": 258
    }, 
    {
        "salle": 4, 
        "group": 4, 
        "name": "eloquent_hamilton", 
        "istrain": true, 
        "age": 42, 
        "lon": 2.3274557144374524, 
        "lat": 48.84733965329466, 
        "id": 259
    }, 
    {
        "salle": 2, 
        "group": 4, 
        "name": "musing_feynman", 
        "istrain": true, 
        "age": 31, 
        "lon": 2.3210286381090857, 
        "lat": 48.87162232683249, 
        "id": 260
    }, 
    {
        "salle": 4, 
        "group": 4, 
        "name": "awesome_bose", 
        "istrain": true, 
        "age": 33, 
        "lon": 2.335592052630111, 
        "lat": 48.859301489732765, 
        "id": 261
    }, 
    {
        "salle": 1, 
        "group": 4, 
        "name": "infallible_lewin", 
        "istrain": true, 
        "age": 18, 
        "lon": 2.3333223410266974, 
        "lat": 48.85041023641509, 
        "id": 262
    }, 
    {
        "salle": 0, 
        "group": 4, 
        "name": "elegant_montalcini", 
        "istrain": true, 
        "age": 29, 
        "lon": 2.3357086995407057, 
        "lat": 48.871322497110995, 
        "id": 263
    }, 
    {
        "salle": 4, 
        "group": 4, 
        "name": "gallant_snyder", 
        "istrain": true, 
        "age": 34, 
        "lon": 2.317968454591505, 
        "lat": 48.8685265282814, 
        "id": 264
    }, 
    {
        "salle": 5, 
        "group": 4, 
        "name": "distracted_heyrovsky", 
        "istrain": false, 
        "age": 63, 
        "lon": 2.3438817025573044, 
        "lat": 48.857367971000926, 
        "id": 265
    }, 
    {
        "salle": 4, 
        "group": 4, 
        "name": "blissful_engelbart", 
        "istrain": false, 
        "age": 49, 
        "lon": 2.334454672456793, 
        "lat": 48.87471760043446, 
        "id": 266
    }, 
    {
        "salle": 5, 
        "group": 4, 
        "name": "vibrant_mcnulty", 
        "istrain": false, 
        "age": 39, 
        "lon": 2.3285377461817247, 
        "lat": 48.84311359200887, 
        "id": 267
    }, 
    {
        "salle": 3, 
        "group": 4, 
        "name": "eloquent_gates", 
        "istrain": false, 
        "age": 26, 
        "lon": 2.334941122392761, 
        "lat": 48.875392999127726, 
        "id": 268
    }, 
    {
        "salle": 5, 
        "group": 4, 
        "name": "zen_poitras", 
        "istrain": false, 
        "age": 28, 
        "lon": 2.333507512084862, 
        "lat": 48.86114688431517, 
        "id": 269
    }, 
    {
        "salle": 5, 
        "group": 4, 
        "name": "dazzling_swirles", 
        "istrain": true, 
        "age": 23, 
        "lon": 2.321825798743074, 
        "lat": 48.86197184229073, 
        "id": 270
    }, 
    {
        "salle": 5, 
        "group": 4, 
        "name": "eager_cray", 
        "istrain": false, 
        "age": 38, 
        "lon": 2.3348026570086535, 
        "lat": 48.846838078106344, 
        "id": 271
    }, 
    {
        "salle": 3, 
        "group": 4, 
        "name": "confident_saha", 
        "istrain": false, 
        "age": 33, 
        "lon": 2.3302138442315266, 
        "lat": 48.861139810479095, 
        "id": 272
    }, 
    {
        "salle": 1, 
        "group": 4, 
        "name": "gallant_jepsen", 
        "istrain": true, 
        "age": 36, 
        "lon": 2.3343925378013783, 
        "lat": 48.86645971541586, 
        "id": 273
    }, 
    {
        "salle": 3, 
        "group": 4, 
        "name": "goofy_ptolemy", 
        "istrain": true, 
        "age": 29, 
        "lon": 2.313787700343053, 
        "lat": 48.858220325501456, 
        "id": 274
    }, 
    {
        "salle": 0, 
        "group": 4, 
        "name": "frosty_beaver", 
        "istrain": false, 
        "age": 20, 
        "lon": 2.336132657243855, 
        "lat": 48.856047326793544, 
        "id": 275
    }, 
    {
        "salle": 0, 
        "group": 4, 
        "name": "adoring_torvalds", 
        "istrain": true, 
        "age": 22, 
        "lon": 2.3221498679041592, 
        "lat": 48.84536432840159, 
        "id": 276
    }, 
    {
        "salle": 1, 
        "group": 4, 
        "name": "cocky_borg", 
        "istrain": true, 
        "age": 22, 
        "lon": 2.3242588869380567, 
        "lat": 48.86925913541363, 
        "id": 277
    }, 
    {
        "salle": 4, 
        "group": 4, 
        "name": "distracted_snyder", 
        "istrain": false, 
        "age": 58, 
        "lon": 2.3321188571448053, 
        "lat": 48.86076832469331, 
        "id": 278
    }, 
    {
        "salle": 5, 
        "group": 4, 
        "name": "frosty_knuth", 
        "istrain": true, 
        "age": 23, 
        "lon": 2.351696041232378, 
        "lat": 48.86026021741247, 
        "id": 279
    }, 
    {
        "salle": 3, 
        "group": 4, 
        "name": "stoic_curran", 
        "istrain": false, 
        "age": 18, 
        "lon": 2.3331186079786574, 
        "lat": 48.88554043141275, 
        "id": 280
    }, 
    {
        "salle": 3, 
        "group": 4, 
        "name": "unruffled_lalande", 
        "istrain": true, 
        "age": 38, 
        "lon": 2.3180577319278175, 
        "lat": 48.87531439366193, 
        "id": 281
    }, 
    {
        "salle": 2, 
        "group": 4, 
        "name": "pedantic_brattain", 
        "istrain": false, 
        "age": 37, 
        "lon": 2.327223745885424, 
        "lat": 48.86470034138665, 
        "id": 282
    }, 
    {
        "salle": 3, 
        "group": 4, 
        "name": "laughing_kare", 
        "istrain": true, 
        "age": 40, 
        "lon": 2.330973028754322, 
        "lat": 48.88339405733991, 
        "id": 283
    }, 
    {
        "salle": 3, 
        "group": 4, 
        "name": "determined_meitner", 
        "istrain": false, 
        "age": 23, 
        "lon": 2.351271292937834, 
        "lat": 48.86916848575102, 
        "id": 284
    }, 
    {
        "salle": 0, 
        "group": 4, 
        "name": "happy_minsky", 
        "istrain": false, 
        "age": 51, 
        "lon": 2.334130039533415, 
        "lat": 48.87342204770707, 
        "id": 285
    }, 
    {
        "salle": 0, 
        "group": 4, 
        "name": "goofy_poincare", 
        "istrain": false, 
        "age": 46, 
        "lon": 2.3411690500931126, 
        "lat": 48.87388034432831, 
        "id": 286
    }, 
    {
        "salle": 0, 
        "group": 4, 
        "name": "serene_kilby", 
        "istrain": true, 
        "age": 31, 
        "lon": 2.3156934112748333, 
        "lat": 48.862025750314366, 
        "id": 288
    }, 
    {
        "salle": 2, 
        "group": 4, 
        "name": "affectionate_lumiere", 
        "istrain": false, 
        "age": 18, 
        "lon": 2.317879932009473, 
        "lat": 48.86481775018049, 
        "id": 289
    }, 
    {
        "salle": 4, 
        "group": 4, 
        "name": "objective_euclid", 
        "istrain": true, 
        "age": 29, 
        "lon": 2.3485330257211876, 
        "lat": 48.864943072335315, 
        "id": 290
    }, 
    {
        "salle": 1, 
        "group": 4, 
        "name": "lucid_kilby", 
        "istrain": false, 
        "age": 22, 
        "lon": 2.326798236331942, 
        "lat": 48.84241120190079, 
        "id": 291
    }, 
    {
        "salle": 5, 
        "group": 4, 
        "name": "unruffled_euclid", 
        "istrain": false, 
        "age": 31, 
        "lon": 2.322324974037713, 
        "lat": 48.855547833738115, 
        "id": 293
    }, 
    {
        "salle": 5, 
        "group": 4, 
        "name": "dreamy_shockley", 
        "istrain": true, 
        "age": 23, 
        "lon": 2.325846612372085, 
        "lat": 48.87271713198302, 
        "id": 294
    }, 
    {
        "salle": 1, 
        "group": 4, 
        "name": "elastic_stallman", 
        "istrain": false, 
        "age": 26, 
        "lon": 2.344075536034222, 
        "lat": 48.84820160792843, 
        "id": 295
    }, 
    {
        "salle": 3, 
        "group": 4, 
        "name": "silly_mestorf", 
        "istrain": true, 
        "age": 28, 
        "lon": 2.330680873692316, 
        "lat": 48.85438579590928, 
        "id": 296
    }, 
    {
        "salle": 3, 
        "group": 4, 
        "name": "compassionate_rosalind", 
        "istrain": true, 
        "age": 22, 
        "lon": 2.3530839289375636, 
        "lat": 48.86607177095481, 
        "id": 297
    }, 
    {
        "salle": 0, 
        "group": 4, 
        "name": "xenodochial_hermann", 
        "istrain": false, 
        "age": 30, 
        "lon": 2.331261171849336, 
        "lat": 48.85508849691171, 
        "id": 298
    }, 
    {
        "salle": 3, 
        "group": 4, 
        "name": "clever_davinci", 
        "istrain": true, 
        "age": 22, 
        "lon": 2.314933283742722, 
        "lat": 48.86592028985695, 
        "id": 299
    }, 
    {
        "salle": 0, 
        "group": 4, 
        "name": "quirky_jackson", 
        "istrain": false, 
        "age": 19, 
        "lon": 2.313631601482762, 
        "lat": 48.858495658903045, 
        "id": 300
    }, 
    {
        "salle": 1, 
        "group": 4, 
        "name": "stoic_haibt", 
        "istrain": true, 
        "age": 19, 
        "lon": 2.343533488554511, 
        "lat": 48.853521167993236, 
        "id": 301
    }, 
    {
        "salle": 3, 
        "group": 4, 
        "name": "compassionate_bose", 
        "istrain": false, 
        "age": 61, 
        "lon": 2.347021723876199, 
        "lat": 48.863935148615575, 
        "id": 302
    }, 
    {
        "salle": 3, 
        "group": 4, 
        "name": "confident_bhaskara", 
        "istrain": true, 
        "age": 30, 
        "lon": 2.3356786497184805, 
        "lat": 48.87483108487139, 
        "id": 303
    }, 
    {
        "salle": 3, 
        "group": 4, 
        "name": "objective_lamarr", 
        "istrain": true, 
        "age": 19, 
        "lon": 2.3318132352271905, 
        "lat": 48.88622179132286, 
        "id": 304
    }, 
    {
        "salle": 2, 
        "group": 4, 
        "name": "eloquent_kare", 
        "istrain": true, 
        "age": 36, 
        "lon": 2.3360048327826015, 
        "lat": 48.872464471945214, 
        "id": 305
    }, 
    {
        "salle": 2, 
        "group": 4, 
        "name": "trusting_bartik", 
        "istrain": false, 
        "age": 38, 
        "lon": 2.333959496176601, 
        "lat": 48.85124631851157, 
        "id": 306
    }, 
    {
        "salle": 0, 
        "group": 4, 
        "name": "romantic_booth", 
        "istrain": false, 
        "age": 27, 
        "lon": 2.32716276045095, 
        "lat": 48.88674070051181, 
        "id": 307
    }, 
    {
        "salle": 0, 
        "group": 4, 
        "name": "blissful_jones", 
        "istrain": false, 
        "age": 22, 
        "lon": 2.3402371045183923, 
        "lat": 48.874087272622624, 
        "id": 308
    }, 
    {
        "salle": 3, 
        "group": 4, 
        "name": "sharp_dubinsky", 
        "istrain": true, 
        "age": 34, 
        "lon": 2.3098795802947967, 
        "lat": 48.856773657018714, 
        "id": 309
    }, 
    {
        "salle": 4, 
        "group": 4, 
        "name": "competent_visvesvaraya", 
        "istrain": true, 
        "age": 38, 
        "lon": 2.3246399740036345, 
        "lat": 48.8695522994524, 
        "id": 310
    }, 
    {
        "salle": 3, 
        "group": 4, 
        "name": "quizzical_kilby", 
        "istrain": false, 
        "age": 20, 
        "lon": 2.338205286055598, 
        "lat": 48.85823990420192, 
        "id": 311
    }, 
    {
        "salle": 0, 
        "group": 4, 
        "name": "laughing_lumiere", 
        "istrain": true, 
        "age": 50, 
        "lon": 2.3359768111563946, 
        "lat": 48.85368238311346, 
        "id": 312
    }, 
    {
        "salle": 5, 
        "group": 4, 
        "name": "xenodochial_lamarr", 
        "istrain": false, 
        "age": 18, 
        "lon": 2.3430259361037047, 
        "lat": 48.86690902875374, 
        "id": 313
    }, 
    {
        "salle": 4, 
        "group": 4, 
        "name": "frosty_montalcini", 
        "istrain": true, 
        "age": 43, 
        "lon": 2.3209905436446996, 
        "lat": 48.86222066782373, 
        "id": 314
    }, 
    {
        "salle": 1, 
        "group": 4, 
        "name": "hungry_blackwell", 
        "istrain": false, 
        "age": 23, 
        "lon": 2.3287432794415275, 
        "lat": 48.863617333410176, 
        "id": 315
    }, 
    {
        "salle": 4, 
        "group": 4, 
        "name": "naughty_morse", 
        "istrain": false, 
        "age": 36, 
        "lon": 2.3338711087245603, 
        "lat": 48.881556993739295, 
        "id": 316
    }, 
    {
        "salle": 3, 
        "group": 4, 
        "name": "unruffled_cori", 
        "istrain": true, 
        "age": 40, 
        "lon": 2.342892083169892, 
        "lat": 48.879828728855706, 
        "id": 317
    }, 
    {
        "salle": 5, 
        "group": 4, 
        "name": "elated_kowalevski", 
        "istrain": true, 
        "age": 22, 
        "lon": 2.3363380927899082, 
        "lat": 48.85828788120385, 
        "id": 318
    }, 
    {
        "salle": 0, 
        "group": 4, 
        "name": "zen_lalande", 
        "istrain": true, 
        "age": 28, 
        "lon": 2.3251548349381674, 
        "lat": 48.86782981956196, 
        "id": 319
    }, 
    {
        "salle": 3, 
        "group": 4, 
        "name": "frosty_mclean", 
        "istrain": true, 
        "age": 22, 
        "lon": 2.3429073627730426, 
        "lat": 48.85916326034582, 
        "id": 320
    }, 
    {
        "salle": 0, 
        "group": 4, 
        "name": "distracted_volhard", 
        "istrain": true, 
        "age": 30, 
        "lon": 2.333763514302962, 
        "lat": 48.86125794217404, 
        "id": 321
    }, 
    {
        "salle": 1, 
        "group": 4, 
        "name": "focused_blackwell", 
        "istrain": false, 
        "age": 41, 
        "lon": 2.3345763188832542, 
        "lat": 48.85680573029291, 
        "id": 322
    }, 
    {
        "salle": 4, 
        "group": 4, 
        "name": "youthful_noether", 
        "istrain": true, 
        "age": 39, 
        "lon": 2.3317432793840016, 
        "lat": 48.845238485737056, 
        "id": 323
    }, 
    {
        "salle": 3, 
        "group": 4, 
        "name": "cocky_ptolemy", 
        "istrain": false, 
        "age": 19, 
        "lon": 2.342716834950213, 
        "lat": 48.86707387770032, 
        "id": 324
    }, 
    {
        "salle": 4, 
        "group": 4, 
        "name": "sharp_banach", 
        "istrain": true, 
        "age": 24, 
        "lon": 2.3421680518077097, 
        "lat": 48.86007894831948, 
        "id": 325
    }, 
    {
        "salle": 5, 
        "group": 4, 
        "name": "gallant_shockley", 
        "istrain": false, 
        "age": 23, 
        "lon": 2.337907550799618, 
        "lat": 48.87609570719202, 
        "id": 326
    }, 
    {
        "salle": 4, 
        "group": 4, 
        "name": "admiring_shaw", 
        "istrain": true, 
        "age": 25, 
        "lon": 2.3211230832381755, 
        "lat": 48.86336888753753, 
        "id": 327
    }, 
    {
        "salle": 0, 
        "group": 4, 
        "name": "vibrant_galileo", 
        "istrain": true, 
        "age": 24, 
        "lon": 2.3263510226081836, 
        "lat": 48.86664198254754, 
        "id": 328
    }, 
    {
        "salle": 2, 
        "group": 4, 
        "name": "determined_brahmagupta", 
        "istrain": true, 
        "age": 20, 
        "lon": 2.3206224714172317, 
        "lat": 48.86362295200295, 
        "id": 329
    }, 
    {
        "salle": 1, 
        "group": 4, 
        "name": "brave_mclean", 
        "istrain": true, 
        "age": 19, 
        "lon": 2.344718427337521, 
        "lat": 48.860033002793315, 
        "id": 330
    }, 
    {
        "salle": 4, 
        "group": 4, 
        "name": "boring_sammet", 
        "istrain": true, 
        "age": 21, 
        "lon": 2.3356607189214644, 
        "lat": 48.88003972610267, 
        "id": 331
    }, 
    {
        "salle": 5, 
        "group": 4, 
        "name": "kind_bohr", 
        "istrain": true, 
        "age": 49, 
        "lon": 2.3357120799440376, 
        "lat": 48.86449338132727, 
        "id": 332
    }, 
    {
        "salle": 4, 
        "group": 4, 
        "name": "reverent_engelbart", 
        "istrain": true, 
        "age": 36, 
        "lon": 2.3188596607494696, 
        "lat": 48.867350200094414, 
        "id": 333
    }, 
    {
        "salle": 5, 
        "group": 4, 
        "name": "angry_poitras", 
        "istrain": false, 
        "age": 19, 
        "lon": 2.3321482604889687, 
        "lat": 48.8583579399816, 
        "id": 334
    }, 
    {
        "salle": 0, 
        "group": 4, 
        "name": "determined_bose", 
        "istrain": false, 
        "age": 53, 
        "lon": 2.309689673588244, 
        "lat": 48.86153241878428, 
        "id": 336
    }, 
    {
        "salle": 0, 
        "group": 4, 
        "name": "thirsty_elion", 
        "istrain": false, 
        "age": 24, 
        "lon": 2.3172656874471382, 
        "lat": 48.86552730164715, 
        "id": 337
    }, 
    {
        "salle": 0, 
        "group": 4, 
        "name": "peaceful_archimedes", 
        "istrain": false, 
        "age": 43, 
        "lon": 2.3358400460274, 
        "lat": 48.870852861422435, 
        "id": 338
    }, 
    {
        "salle": 2, 
        "group": 4, 
        "name": "tender_tesla", 
        "istrain": true, 
        "age": 27, 
        "lon": 2.323944752067168, 
        "lat": 48.85651874655289, 
        "id": 339
    }, 
    {
        "salle": 4, 
        "group": 4, 
        "name": "pedantic_euler", 
        "istrain": false, 
        "age": 35, 
        "lon": 2.3185986544722414, 
        "lat": 48.86322294455622, 
        "id": 340
    }, 
    {
        "salle": 0, 
        "group": 4, 
        "name": "condescending_leakey", 
        "istrain": false, 
        "age": 23, 
        "lon": 2.342350411082344, 
        "lat": 48.85683281459508, 
        "id": 341
    }, 
    {
        "salle": 1, 
        "group": 4, 
        "name": "objective_allen", 
        "istrain": false, 
        "age": 34, 
        "lon": 2.3274022167894546, 
        "lat": 48.84735364257368, 
        "id": 342
    }, 
    {
        "salle": 3, 
        "group": 4, 
        "name": "optimistic_perlman", 
        "istrain": false, 
        "age": 21, 
        "lon": 2.3307152840586367, 
        "lat": 48.84775602589586, 
        "id": 343
    }, 
    {
        "salle": 3, 
        "group": 4, 
        "name": "xenodochial_jepsen", 
        "istrain": true, 
        "age": 29, 
        "lon": 2.326421515456405, 
        "lat": 48.85213633370188, 
        "id": 344
    }, 
    {
        "salle": 1, 
        "group": 4, 
        "name": "inspiring_kepler", 
        "istrain": true, 
        "age": 18, 
        "lon": 2.3315968365767197, 
        "lat": 48.869465555025684, 
        "id": 345
    }, 
    {
        "salle": 3, 
        "group": 4, 
        "name": "condescending_mahavira", 
        "istrain": true, 
        "age": 49, 
        "lon": 2.31736749989597, 
        "lat": 48.87089614915407, 
        "id": 346
    }, 
    {
        "salle": 5, 
        "group": 4, 
        "name": "optimistic_ritchie", 
        "istrain": true, 
        "age": 21, 
        "lon": 2.327106058656616, 
        "lat": 48.87997082755333, 
        "id": 347
    }, 
    {
        "salle": 1, 
        "group": 2, 
        "name": "zen_jones", 
        "istrain": false, 
        "age": 24, 
        "lon": 2.3578557914092606, 
        "lat": 48.839066882802115, 
        "id": 348
    }, 
    {
        "salle": 3, 
        "group": 3, 
        "name": "determined_feynman", 
        "istrain": true, 
        "age": 45, 
        "lon": 2.295732415498549, 
        "lat": 48.85100986022042, 
        "id": 349
    }, 
    {
        "salle": 2, 
        "group": 3, 
        "name": "festive_bohr", 
        "istrain": false, 
        "age": 19, 
        "lon": 2.297522823603785, 
        "lat": 48.871767925947395, 
        "id": 350
    }, 
    {
        "salle": 0, 
        "group": 3, 
        "name": "relaxed_hopper", 
        "istrain": true, 
        "age": 48, 
        "lon": 2.2998944606731153, 
        "lat": 48.85743400401358, 
        "id": 351
    }, 
    {
        "salle": 2, 
        "group": 3, 
        "name": "compassionate_bell", 
        "istrain": false, 
        "age": 29, 
        "lon": 2.2830411382746227, 
        "lat": 48.857134901027706, 
        "id": 352
    }, 
    {
        "salle": 3, 
        "group": 3, 
        "name": "brave_fermi", 
        "istrain": false, 
        "age": 23, 
        "lon": 2.2838400634539884, 
        "lat": 48.862948071386995, 
        "id": 353
    }, 
    {
        "salle": 1, 
        "group": 3, 
        "name": "nervous_northcutt", 
        "istrain": false, 
        "age": 51, 
        "lon": 2.2827798004146733, 
        "lat": 48.85469847594383, 
        "id": 354
    }, 
    {
        "salle": 4, 
        "group": 3, 
        "name": "eloquent_sinoussi", 
        "istrain": false, 
        "age": 39, 
        "lon": 2.295453115875119, 
        "lat": 48.858441805390164, 
        "id": 355
    }, 
    {
        "salle": 4, 
        "group": 3, 
        "name": "amazing_jepsen", 
        "istrain": false, 
        "age": 37, 
        "lon": 2.2935016283203096, 
        "lat": 48.85890332617297, 
        "id": 356
    }, 
    {
        "salle": 4, 
        "group": 3, 
        "name": "upbeat_mahavira", 
        "istrain": false, 
        "age": 35, 
        "lon": 2.3008236791152137, 
        "lat": 48.860372266570806, 
        "id": 357
    }, 
    {
        "salle": 4, 
        "group": 3, 
        "name": "cranky_bassi", 
        "istrain": false, 
        "age": 23, 
        "lon": 2.2933718762327397, 
        "lat": 48.8649668458439, 
        "id": 359
    }, 
    {
        "salle": 4, 
        "group": 3, 
        "name": "eloquent_leakey", 
        "istrain": true, 
        "age": 31, 
        "lon": 2.299269277555497, 
        "lat": 48.84590152582715, 
        "id": 360
    }, 
    {
        "salle": 5, 
        "group": 3, 
        "name": "objective_ardinghelli", 
        "istrain": false, 
        "age": 27, 
        "lon": 2.303633595365915, 
        "lat": 48.849996106610114, 
        "id": 361
    }, 
    {
        "salle": 2, 
        "group": 3, 
        "name": "pensive_varahamihira", 
        "istrain": true, 
        "age": 45, 
        "lon": 2.3055271499118057, 
        "lat": 48.8576528638064, 
        "id": 362
    }, 
    {
        "salle": 1, 
        "group": 3, 
        "name": "nervous_morse", 
        "istrain": true, 
        "age": 40, 
        "lon": 2.289059650274014, 
        "lat": 48.86513423650148, 
        "id": 363
    }, 
    {
        "salle": 5, 
        "group": 3, 
        "name": "hardcore_hawking", 
        "istrain": true, 
        "age": 44, 
        "lon": 2.2937740105593654, 
        "lat": 48.862885572636266, 
        "id": 364
    }, 
    {
        "salle": 1, 
        "group": 3, 
        "name": "goofy_heyrovsky", 
        "istrain": false, 
        "age": 22, 
        "lon": 2.2889350890818116, 
        "lat": 48.86484498275681, 
        "id": 365
    }, 
    {
        "salle": 5, 
        "group": 3, 
        "name": "elated_raman", 
        "istrain": true, 
        "age": 22, 
        "lon": 2.2935242982984603, 
        "lat": 48.86990238889947, 
        "id": 366
    }, 
    {
        "salle": 5, 
        "group": 3, 
        "name": "elegant_varahamihira", 
        "istrain": true, 
        "age": 43, 
        "lon": 2.294736771790338, 
        "lat": 48.86310646766251, 
        "id": 367
    }, 
    {
        "salle": 5, 
        "group": 3, 
        "name": "sleepy_pare", 
        "istrain": true, 
        "age": 18, 
        "lon": 2.2961186349968132, 
        "lat": 48.86975646128237, 
        "id": 368
    }, 
    {
        "salle": 0, 
        "group": 3, 
        "name": "hardcore_tesla", 
        "istrain": true, 
        "age": 23, 
        "lon": 2.297352842599728, 
        "lat": 48.86944630151218, 
        "id": 369
    }, 
    {
        "salle": 2, 
        "group": 3, 
        "name": "mystifying_bartik", 
        "istrain": true, 
        "age": 30, 
        "lon": 2.305645015572932, 
        "lat": 48.85827311314315, 
        "id": 370
    }, 
    {
        "salle": 5, 
        "group": 3, 
        "name": "naughty_hopper", 
        "istrain": false, 
        "age": 19, 
        "lon": 2.303893432514795, 
        "lat": 48.86252857236873, 
        "id": 371
    }, 
    {
        "salle": 4, 
        "group": 3, 
        "name": "elegant_easley", 
        "istrain": false, 
        "age": 50, 
        "lon": 2.2976339646486377, 
        "lat": 48.873158993416524, 
        "id": 372
    }, 
    {
        "salle": 1, 
        "group": 3, 
        "name": "hungry_minsky", 
        "istrain": true, 
        "age": 26, 
        "lon": 2.2909283527550595, 
        "lat": 48.86188249649354, 
        "id": 373
    }, 
    {
        "salle": 2, 
        "group": 3, 
        "name": "peaceful_pike", 
        "istrain": false, 
        "age": 36, 
        "lon": 2.298477421613059, 
        "lat": 48.85896020623824, 
        "id": 374
    }, 
    {
        "salle": 1, 
        "group": 3, 
        "name": "flamboyant_yalow", 
        "istrain": false, 
        "age": 20, 
        "lon": 2.2961901508163853, 
        "lat": 48.86511668015515, 
        "id": 375
    }, 
    {
        "salle": 4, 
        "group": 3, 
        "name": "nifty_bardeen", 
        "istrain": true, 
        "age": 20, 
        "lon": 2.293525689206126, 
        "lat": 48.8485780017008, 
        "id": 376
    }, 
    {
        "salle": 4, 
        "group": 3, 
        "name": "trusting_hypatia", 
        "istrain": true, 
        "age": 20, 
        "lon": 2.292612668282558, 
        "lat": 48.858714215441836, 
        "id": 377
    }, 
    {
        "salle": 3, 
        "group": 3, 
        "name": "heuristic_kilby", 
        "istrain": true, 
        "age": 18, 
        "lon": 2.304678749166344, 
        "lat": 48.859451549820626, 
        "id": 378
    }, 
    {
        "salle": 4, 
        "group": 3, 
        "name": "hardcore_saha", 
        "istrain": true, 
        "age": 32, 
        "lon": 2.3039741837851357, 
        "lat": 48.85716473483929, 
        "id": 379
    }, 
    {
        "salle": 1, 
        "group": 3, 
        "name": "practical_wing", 
        "istrain": false, 
        "age": 31, 
        "lon": 2.2925907221795843, 
        "lat": 48.85951341908513, 
        "id": 380
    }, 
    {
        "salle": 4, 
        "group": 3, 
        "name": "elegant_hoover", 
        "istrain": true, 
        "age": 23, 
        "lon": 2.2987454894007904, 
        "lat": 48.85228923894778, 
        "id": 381
    }, 
    {
        "salle": 1, 
        "group": 3, 
        "name": "gallant_kirch", 
        "istrain": false, 
        "age": 41, 
        "lon": 2.2949936189319677, 
        "lat": 48.86117955414263, 
        "id": 382
    }, 
    {
        "salle": 0, 
        "group": 3, 
        "name": "pedantic_brattain", 
        "istrain": false, 
        "age": 38, 
        "lon": 2.2877672816454178, 
        "lat": 48.85649358481991, 
        "id": 383
    }, 
    {
        "salle": 4, 
        "group": 3, 
        "name": "pensive_mahavira", 
        "istrain": false, 
        "age": 30, 
        "lon": 2.2856996022867713, 
        "lat": 48.86042414926958, 
        "id": 384
    }, 
    {
        "salle": 1, 
        "group": 3, 
        "name": "zen_stallman", 
        "istrain": true, 
        "age": 46, 
        "lon": 2.296318513987023, 
        "lat": 48.86142366548158, 
        "id": 385
    }, 
    {
        "salle": 5, 
        "group": 3, 
        "name": "nervous_leavitt", 
        "istrain": false, 
        "age": 38, 
        "lon": 2.2961197864880374, 
        "lat": 48.85614758925576, 
        "id": 386
    }, 
    {
        "salle": 3, 
        "group": 3, 
        "name": "zealous_kare", 
        "istrain": true, 
        "age": 44, 
        "lon": 2.2907213915618643, 
        "lat": 48.85003490803012, 
        "id": 387
    }, 
    {
        "salle": 2, 
        "group": 3, 
        "name": "epic_shirley", 
        "istrain": false, 
        "age": 42, 
        "lon": 2.2970322674247083, 
        "lat": 48.85815478288354, 
        "id": 388
    }, 
    {
        "salle": 5, 
        "group": 3, 
        "name": "wonderful_cray", 
        "istrain": true, 
        "age": 22, 
        "lon": 2.302888648122933, 
        "lat": 48.86920420150243, 
        "id": 389
    }, 
    {
        "salle": 0, 
        "group": 3, 
        "name": "quizzical_thompson", 
        "istrain": false, 
        "age": 33, 
        "lon": 2.2965243971331097, 
        "lat": 48.85126601875931, 
        "id": 390
    }, 
    {
        "salle": 1, 
        "group": 3, 
        "name": "mystifying_bohr", 
        "istrain": false, 
        "age": 24, 
        "lon": 2.2857119054705164, 
        "lat": 48.85787116863063, 
        "id": 391
    }, 
    {
        "salle": 0, 
        "group": 3, 
        "name": "determined_hamilton", 
        "istrain": true, 
        "age": 32, 
        "lon": 2.28741668064479, 
        "lat": 48.84606775359462, 
        "id": 392
    }, 
    {
        "salle": 3, 
        "group": 3, 
        "name": "modest_pare", 
        "istrain": true, 
        "age": 23, 
        "lon": 2.300630049860455, 
        "lat": 48.858085637328244, 
        "id": 393
    }, 
    {
        "salle": 0, 
        "group": 3, 
        "name": "cranky_murdock", 
        "istrain": true, 
        "age": 53, 
        "lon": 2.303569877185005, 
        "lat": 48.857940009501675, 
        "id": 394
    }, 
    {
        "salle": 5, 
        "group": 3, 
        "name": "reverent_wilson", 
        "istrain": true, 
        "age": 28, 
        "lon": 2.309196424231636, 
        "lat": 48.86032614892808, 
        "id": 395
    }, 
    {
        "salle": 4, 
        "group": 3, 
        "name": "fervent_galileo", 
        "istrain": true, 
        "age": 34, 
        "lon": 2.294605061133165, 
        "lat": 48.85852818294964, 
        "id": 396
    }, 
    {
        "salle": 4, 
        "group": 3, 
        "name": "xenodochial_lewin", 
        "istrain": false, 
        "age": 19, 
        "lon": 2.2832574742809424, 
        "lat": 48.86080915728743, 
        "id": 397
    }, 
    {
        "salle": 0, 
        "group": 3, 
        "name": "laughing_meitner", 
        "istrain": false, 
        "age": 23, 
        "lon": 2.2978730867294983, 
        "lat": 48.85684849012315, 
        "id": 398
    }, 
    {
        "salle": 3, 
        "group": 3, 
        "name": "sharp_poitras", 
        "istrain": true, 
        "age": 32, 
        "lon": 2.2905299643673054, 
        "lat": 48.85428192917609, 
        "id": 399
    }, 
    {
        "salle": 0, 
        "group": 3, 
        "name": "hungry_bassi", 
        "istrain": false, 
        "age": 42, 
        "lon": 2.30411822220549, 
        "lat": 48.86929094614971, 
        "id": 400
    }, 
    {
        "salle": 2, 
        "group": 3, 
        "name": "clever_fermat", 
        "istrain": true, 
        "age": 27, 
        "lon": 2.2883122345648728, 
        "lat": 48.8635762536852, 
        "id": 401
    }, 
    {
        "salle": 0, 
        "group": 3, 
        "name": "pensive_williams", 
        "istrain": true, 
        "age": 31, 
        "lon": 2.3011595202656143, 
        "lat": 48.86376352161089, 
        "id": 402
    }, 
    {
        "salle": 5, 
        "group": 3, 
        "name": "quirky_haibt", 
        "istrain": true, 
        "age": 30, 
        "lon": 2.2812472969047657, 
        "lat": 48.853183091413854, 
        "id": 403
    }, 
    {
        "salle": 5, 
        "group": 3, 
        "name": "eager_noether", 
        "istrain": true, 
        "age": 30, 
        "lon": 2.2877157121682252, 
        "lat": 48.856169996255105, 
        "id": 404
    }, 
    {
        "salle": 3, 
        "group": 3, 
        "name": "xenodochial_kowalevski", 
        "istrain": false, 
        "age": 28, 
        "lon": 2.2821019798963174, 
        "lat": 48.85897928268804, 
        "id": 405
    }, 
    {
        "salle": 2, 
        "group": 3, 
        "name": "pedantic_lichterman", 
        "istrain": false, 
        "age": 19, 
        "lon": 2.2902940071217435, 
        "lat": 48.85444889548813, 
        "id": 406
    }, 
    {
        "salle": 2, 
        "group": 3, 
        "name": "dazzling_bardeen", 
        "istrain": false, 
        "age": 50, 
        "lon": 2.294481, 
        "lat": 48.84670099641633, 
        "id": 407
    }, 
    {
        "salle": 5, 
        "group": 3, 
        "name": "awesome_torvalds", 
        "istrain": true, 
        "age": 22, 
        "lon": 2.2935153802569035, 
        "lat": 48.85909742021622, 
        "id": 408
    }, 
    {
        "salle": 4, 
        "group": 3, 
        "name": "priceless_panini", 
        "istrain": false, 
        "age": 21, 
        "lon": 2.300654180901937, 
        "lat": 48.86504379327775, 
        "id": 409
    }, 
    {
        "salle": 0, 
        "group": 3, 
        "name": "optimistic_wright", 
        "istrain": false, 
        "age": 21, 
        "lon": 2.29938033554246, 
        "lat": 48.861452294185455, 
        "id": 410
    }, 
    {
        "salle": 2, 
        "group": 3, 
        "name": "adoring_wright", 
        "istrain": true, 
        "age": 29, 
        "lon": 2.2817286241811776, 
        "lat": 48.85994789754034, 
        "id": 411
    }, 
    {
        "salle": 4, 
        "group": 3, 
        "name": "zealous_stallman", 
        "istrain": true, 
        "age": 22, 
        "lon": 2.305535511948263, 
        "lat": 48.854309920418146, 
        "id": 412
    }, 
    {
        "salle": 5, 
        "group": 3, 
        "name": "xenodochial_rosalind", 
        "istrain": false, 
        "age": 21, 
        "lon": 2.2894611441465553, 
        "lat": 48.84286458823366, 
        "id": 413
    }, 
    {
        "salle": 2, 
        "group": 3, 
        "name": "compassionate_turing", 
        "istrain": false, 
        "age": 37, 
        "lon": 2.2958421278712247, 
        "lat": 48.86002328933243, 
        "id": 414
    }, 
    {
        "salle": 1, 
        "group": 3, 
        "name": "laughing_bose", 
        "istrain": false, 
        "age": 18, 
        "lon": 2.2986275682705832, 
        "lat": 48.85720620271101, 
        "id": 415
    }, 
    {
        "salle": 4, 
        "group": 3, 
        "name": "wizardly_fermi", 
        "istrain": true, 
        "age": 21, 
        "lon": 2.2977934139781513, 
        "lat": 48.853078609214045, 
        "id": 416
    }, 
    {
        "salle": 0, 
        "group": 3, 
        "name": "zen_swartz", 
        "istrain": true, 
        "age": 35, 
        "lon": 2.2936215399528175, 
        "lat": 48.84791472423252, 
        "id": 417
    }, 
    {
        "salle": 2, 
        "group": 3, 
        "name": "boring_euclid", 
        "istrain": false, 
        "age": 23, 
        "lon": 2.2870079190347283, 
        "lat": 48.85967891334442, 
        "id": 418
    }, 
    {
        "salle": 2, 
        "group": 3, 
        "name": "heuristic_noyce", 
        "istrain": true, 
        "age": 18, 
        "lon": 2.2914526017409083, 
        "lat": 48.849944832731595, 
        "id": 419
    }, 
    {
        "salle": 0, 
        "group": 3, 
        "name": "optimistic_northcutt", 
        "istrain": false, 
        "age": 43, 
        "lon": 2.2842497401754995, 
        "lat": 48.861427669439706, 
        "id": 420
    }, 
    {
        "salle": 0, 
        "group": 3, 
        "name": "hungry_visvesvaraya", 
        "istrain": true, 
        "age": 18, 
        "lon": 2.289663577423344, 
        "lat": 48.86239413260154, 
        "id": 421
    }, 
    {
        "salle": 3, 
        "group": 3, 
        "name": "practical_beaver", 
        "istrain": false, 
        "age": 22, 
        "lon": 2.286437334303035, 
        "lat": 48.85312237468109, 
        "id": 422
    }, 
    {
        "salle": 3, 
        "group": 3, 
        "name": "ecstatic_clarke", 
        "istrain": false, 
        "age": 44, 
        "lon": 2.294220632551752, 
        "lat": 48.84770342570821, 
        "id": 423
    }, 
    {
        "salle": 4, 
        "group": 3, 
        "name": "hopeful_hawking", 
        "istrain": false, 
        "age": 24, 
        "lon": 2.2962760115980716, 
        "lat": 48.86341643969241, 
        "id": 424
    }, 
    {
        "salle": 3, 
        "group": 3, 
        "name": "inspiring_agnesi", 
        "istrain": false, 
        "age": 31, 
        "lon": 2.2884829085316336, 
        "lat": 48.85780117983358, 
        "id": 425
    }, 
    {
        "salle": 5, 
        "group": 3, 
        "name": "upbeat_raman", 
        "istrain": true, 
        "age": 24, 
        "lon": 2.286936018304381, 
        "lat": 48.85410845220776, 
        "id": 426
    }, 
    {
        "salle": 4, 
        "group": 3, 
        "name": "zealous_perlman", 
        "istrain": false, 
        "age": 30, 
        "lon": 2.293885590131736, 
        "lat": 48.844170208260735, 
        "id": 427
    }, 
    {
        "salle": 4, 
        "group": 3, 
        "name": "elegant_northcutt", 
        "istrain": false, 
        "age": 36, 
        "lon": 2.3025349780579023, 
        "lat": 48.85573237025013, 
        "id": 428
    }, 
    {
        "salle": 4, 
        "group": 3, 
        "name": "affectionate_galileo", 
        "istrain": false, 
        "age": 19, 
        "lon": 2.3032881324653407, 
        "lat": 48.850306458866505, 
        "id": 429
    }, 
    {
        "salle": 3, 
        "group": 3, 
        "name": "competent_montalcini", 
        "istrain": false, 
        "age": 28, 
        "lon": 2.294360911869615, 
        "lat": 48.87370263893737, 
        "id": 430
    }, 
    {
        "salle": 2, 
        "group": 3, 
        "name": "eager_booth", 
        "istrain": false, 
        "age": 32, 
        "lon": 2.2961410113703407, 
        "lat": 48.8736264287976, 
        "id": 431
    }, 
    {
        "salle": 0, 
        "group": 3, 
        "name": "trusting_wozniak", 
        "istrain": true, 
        "age": 33, 
        "lon": 2.291327282598785, 
        "lat": 48.866389936165284, 
        "id": 432
    }, 
    {
        "salle": 1, 
        "group": 3, 
        "name": "zealous_khorana", 
        "istrain": false, 
        "age": 39, 
        "lon": 2.309008766810098, 
        "lat": 48.858814082758364, 
        "id": 433
    }, 
    {
        "salle": 4, 
        "group": 3, 
        "name": "confident_allen", 
        "istrain": true, 
        "age": 19, 
        "lon": 2.2974381538476014, 
        "lat": 48.84737137289578, 
        "id": 434
    }, 
    {
        "salle": 0, 
        "group": 3, 
        "name": "jolly_murdock", 
        "istrain": false, 
        "age": 20, 
        "lon": 2.3015925247473845, 
        "lat": 48.86017636292011, 
        "id": 435
    }, 
    {
        "salle": 5, 
        "group": 3, 
        "name": "priceless_kepler", 
        "istrain": false, 
        "age": 18, 
        "lon": 2.294491826636098, 
        "lat": 48.85176286636946, 
        "id": 436
    }, 
    {
        "salle": 3, 
        "group": 3, 
        "name": "hopeful_hugle", 
        "istrain": true, 
        "age": 19, 
        "lon": 2.297597897643584, 
        "lat": 48.872890495696744, 
        "id": 437
    }, 
    {
        "salle": 5, 
        "group": 3, 
        "name": "confident_heyrovsky", 
        "istrain": true, 
        "age": 18, 
        "lon": 2.2930946257184246, 
        "lat": 48.86484658650654, 
        "id": 438
    }, 
    {
        "salle": 3, 
        "group": 3, 
        "name": "clever_dubinsky", 
        "istrain": true, 
        "age": 48, 
        "lon": 2.2933614040171415, 
        "lat": 48.85761216990828, 
        "id": 439
    }, 
    {
        "salle": 1, 
        "group": 3, 
        "name": "hardcore_dijkstra", 
        "istrain": false, 
        "age": 53, 
        "lon": 2.285952432084821, 
        "lat": 48.85836914534878, 
        "id": 440
    }, 
    {
        "salle": 5, 
        "group": 3, 
        "name": "gallant_meitner", 
        "istrain": false, 
        "age": 20, 
        "lon": 2.2950023824347516, 
        "lat": 48.864741293330965, 
        "id": 441
    }, 
    {
        "salle": 2, 
        "group": 3, 
        "name": "confident_sinoussi", 
        "istrain": true, 
        "age": 18, 
        "lon": 2.2928729232157856, 
        "lat": 48.857949419736855, 
        "id": 442
    }, 
    {
        "salle": 4, 
        "group": 3, 
        "name": "agitated_yonath", 
        "istrain": false, 
        "age": 23, 
        "lon": 2.288238138957644, 
        "lat": 48.85103706522398, 
        "id": 443
    }, 
    {
        "salle": 2, 
        "group": 3, 
        "name": "clever_lichterman", 
        "istrain": false, 
        "age": 25, 
        "lon": 2.305032130254237, 
        "lat": 48.857913662160065, 
        "id": 444
    }, 
    {
        "salle": 0, 
        "group": 3, 
        "name": "zealous_wilson", 
        "istrain": false, 
        "age": 44, 
        "lon": 2.296513569202276, 
        "lat": 48.854268989417754, 
        "id": 445
    }, 
    {
        "salle": 0, 
        "group": 3, 
        "name": "competent_williams", 
        "istrain": true, 
        "age": 19, 
        "lon": 2.2855059052530544, 
        "lat": 48.85404848127367, 
        "id": 446
    }, 
    {
        "salle": 0, 
        "group": 3, 
        "name": "elegant_curie", 
        "istrain": false, 
        "age": 42, 
        "lon": 2.30609811970712, 
        "lat": 48.859832054113376, 
        "id": 448
    }, 
    {
        "salle": 1, 
        "group": 3, 
        "name": "angry_curie", 
        "istrain": true, 
        "age": 21, 
        "lon": 2.286886417827976, 
        "lat": 48.865107853965014, 
        "id": 449
    }, 
    {
        "salle": 5, 
        "group": 3, 
        "name": "dazzling_edison", 
        "istrain": false, 
        "age": 23, 
        "lon": 2.293574692979279, 
        "lat": 48.85214597434978, 
        "id": 450
    }, 
    {
        "salle": 4, 
        "group": 3, 
        "name": "inspiring_swartz", 
        "istrain": false, 
        "age": 26, 
        "lon": 2.295169813367417, 
        "lat": 48.85078770891269, 
        "id": 451
    }, 
    {
        "salle": 3, 
        "group": 3, 
        "name": "gracious_pare", 
        "istrain": true, 
        "age": 21, 
        "lon": 2.2811787726524906, 
        "lat": 48.85865998778291, 
        "id": 452
    }, 
    {
        "salle": 5, 
        "group": 3, 
        "name": "sharp_pike", 
        "istrain": true, 
        "age": 35, 
        "lon": 2.2902538004307953, 
        "lat": 48.86203102624354, 
        "id": 453
    }, 
    {
        "salle": 3, 
        "group": 3, 
        "name": "keen_curie", 
        "istrain": false, 
        "age": 19, 
        "lon": 2.301995350817067, 
        "lat": 48.86666696007968, 
        "id": 454
    }, 
    {
        "salle": 3, 
        "group": 3, 
        "name": "unruffled_yalow", 
        "istrain": false, 
        "age": 24, 
        "lon": 2.3048859661647936, 
        "lat": 48.857213391429156, 
        "id": 455
    }, 
    {
        "salle": 3, 
        "group": 3, 
        "name": "fervent_kalam", 
        "istrain": true, 
        "age": 36, 
        "lon": 2.2956084569645037, 
        "lat": 48.861316953437054, 
        "id": 456
    },